{
	"buildings" : 
	[
	{
		"latlng" : "43.65868, -79.39791",
		"friendly_name" : "230 College Street",
		"building_code" : "028",
		"address" : "230  College Street",
		"image" : "http://map.utoronto.ca/_assets/_images/_buildings_pics/default.jpg",
		"campus" : "utsg",
		"city" : "Toronto",
		"country" : "Canada",
		"postal_code" : "M5T 1R2"
	},
	{
		"latlng" : "43.66777, -79.39296",
		"friendly_name" : "Annesley Hall",
		"building_code" : "506",
		"address" : "95  Queen's Park",
		"image" : "http://map.utoronto.ca/_assets/_images/_buildings_pics/AN.jpg",
		"campus" : "utsg",
		"city" : "Toronto",
		"country" : "Canada",
		"postal_code" : "M5S 2C7"
	},
	{
		"latlng" : "43.65987, -79.39845",
		"friendly_name" : "Anthropology Building",
		"building_code" : "079",
		"address" : "19  Russell Street",
		"image" : "http://map.utoronto.ca/_assets/_images/_buildings_pics/AP.jpg",
		"campus" : "utsg",
		"city" : "Toronto",
		"country" : "Canada",
		"postal_code" : "M5S 2S2",
		"offices" : [{"name" : "Anthropology, Dept of","room" : "266","site" : "http://anthropology.utoronto.ca/"},{"name" : "Archaeology Centre","room" : "132","site" : "http://www.archaeology.utoronto.ca/"}]
	},
	{
		"latlng" : "43.66066, -79.39734",
		"friendly_name" : "Astronomy & Astrophysics Building",
		"building_code" : "036",
		"address" : "50  St. George Street",
		"image" : "http://map.utoronto.ca/_assets/_images/_buildings_pics/AB.jpg",
		"campus" : "utsg",
		"city" : "Toronto",
		"country" : "Canada",
		"postal_code" : "M5S 3H4",
		"offices" : [{"name" : "Astronomy &amp; Astrophysics, Dept. of","room" : "101","site" : "http://www.astro.utoronto.ca/"},{"name" : "Dunlap Institute for Astronomy &amp; Astrophysics","room" : "101","site" : "http://www.dunlap.utoronto.ca"}]
	},
	{
		"latlng" : "43.65967, -79.39737",
		"friendly_name" : "Bahen Centre for Information Technology",
		"building_code" : "080",
		"address" : "40  St. George Street",
		"image" : "http://map.utoronto.ca/_assets/_images/_buildings_pics/BA.jpg",
		"campus" : "utsg",
		"city" : "Toronto",
		"country" : "Canada",
		"postal_code" : "M5S 2E4",
		"offices" : [{"name" : "Computer Science, Dept of","room" : "4283","site" : "http://web.cs.toronto.edu/"},{"name" : "Mathematics, Dept of","room" : "6290","site" : "http://www.math.toronto.edu/"},{"name" : "Deans Off Applied Sci &amp; Engineering","room" : "2000","site" : "http://www.engineering.utoronto.ca/"},{"name" : "Engineering Science, Division of","room" : "2110","site" : "http://engsci.utoronto.ca/"},{"name" : "Environmental Engineering, Div of","room" : "1015","site" : "http://www.energy.engineering.utoronto.ca/"}]
	},
	{
		"latlng" : "43.66093, -79.39972",
		"friendly_name" : "Bancroft Building",
		"building_code" : "057",
		"address" : "4  Bancroft Avenue",
		"image" : "http://map.utoronto.ca/_assets/_images/_buildings_pics/BF.jpg",
		"campus" : "utsg",
		"city" : "Toronto",
		"country" : "Canada",
		"postal_code" : "M5S 1C1",
		"offices" : [{"name" : "Near &amp; Middle Eastern Civilizations","room" : "200","site" : "http://www.utoronto.ca/nmc/"}]
	},
	{
		"latlng" : "43.66049, -79.38859",
		"friendly_name" : "Banting Institute",
		"building_code" : "016",
		"address" : "100  College Street",
		"image" : "http://map.utoronto.ca/_assets/_images/_buildings_pics/BI.jpg",
		"campus" : "utsg",
		"city" : "Toronto",
		"country" : "Canada",
		"postal_code" : "M5G 1L5",
		"offices" : [{"name" : "Parking &amp; Transportation Services","room" : "222","site" : "http://www.parking.utoronto.ca/"},{"name" : "Innovations &amp; Partnerships Office IPO","room" : "413","site" : ""}]
	},
	{
		"latlng" : "43.66037, -79.38929",
		"friendly_name" : "Best Institute",
		"building_code" : "052",
		"address" : "112  College St",
		"image" : "http://map.utoronto.ca/_assets/_images/_buildings_pics/CB.jpg",
		"campus" : "utsg",
		"city" : "Toronto",
		"country" : "Canada",
		"postal_code" : "M5G 1L6",
		"offices" : [{"name" : "Best Institute for Optical Science","room" : "402","site" : ""},{"name" : "Banting &amp; Best Centre for Innovation &amp; Entrepreneurship","room" : "408","site" : "http://entrepreneurs.utoronto.ca"}]
	},
	{
		"latlng" : "43.66711, -79.39296",
		"friendly_name" : "Birge-Carnegie Library",
		"building_code" : "503",
		"address" : "75a   Queen's Park",
		"image" : "http://map.utoronto.ca/_assets/_images/_buildings_pics/BC.jpg",
		"campus" : "utsg",
		"city" : "Toronto",
		"country" : "Canada",
		"postal_code" : "M5S 1K7"
	},
	{
		"latlng" : "43.66668, -79.40223",
		"friendly_name" : "Bloor Street West-371",
		"building_code" : "014",
		"address" : "371  Bloor Street West",
		"image" : "http://map.utoronto.ca/_assets/_images/_buildings_pics/FE.jpg",
		"campus" : "utsg",
		"city" : "Toronto",
		"country" : "Canada",
		"postal_code" : "M5S 2R7",
		"offices" : [{"name" : "Sociology, Dept of","room" : "290","site" : "http://sociology.utoronto.ca/"},{"name" : "University of Toronto Schools","room" : "110","site" : "http://www.utschools.ca/"}]
	},
	{
		"latlng" : "43.66041, -79.4",
		"friendly_name" : "Borden Building North",
		"building_code" : "061A",
		"address" : "563  Spadina Crescent",
		"image" : "http://map.utoronto.ca/_assets/_images/_buildings_pics/NB.jpg",
		"campus" : "utsg",
		"city" : "Toronto",
		"country" : "Canada",
		"postal_code" : "M5S 2J7",
		"offices" : [{"name" : "Indigenous Studies","room" : "219","site" : "http://www.utoronto.ca/abs/"},{"name" : "First Nations House","room" : "306K","site" : "http://www.fnh.utoronto.ca"},{"name" : "Campus Mail Services","room" : "111","site" : "http://www.fs.utoronto.ca/mail.htm"},{"name" : "Women’s Centre","room" : "100","site" : "http://womenscentre.sa.utoronto.ca/"}]
	},
	{
		"latlng" : "43.66007, -79.39967",
		"friendly_name" : "Borden Building South",
		"building_code" : "061",
		"address" : "487  Spadina Crescent",
		"image" : "http://map.utoronto.ca/_assets/_images/_buildings_pics/SB.jpg",
		"campus" : "utsg",
		"city" : "Toronto",
		"country" : "Canada",
		"postal_code" : "M5S 2T4",
		"offices" : [{"name" : "Building Services, Grounds &amp; Trades","room" : "100B","site" : "http://www.fs.utoronto.ca/"}]
	},
	{
		"latlng" : "43.66636, -79.38986",
		"friendly_name" : "Brennan Hall",
		"building_code" : "411",
		"address" : "81  St. Mary Street",
		"image" : "http://map.utoronto.ca/_assets/_images/_buildings_pics/BR.jpg",
		"campus" : "utsg",
		"city" : "Toronto",
		"country" : "Canada",
		"postal_code" : "M5S 1J4"
	},
	{
		"latlng" : "43.66744, -79.39179",
		"friendly_name" : "Burwash Hall",
		"building_code" : "504",
		"address" : "89  Charles Street West",
		"image" : "http://map.utoronto.ca/_assets/_images/_buildings_pics/BW.jpg",
		"campus" : "utsg",
		"city" : "Toronto",
		"country" : "Canada",
		"postal_code" : "M5S 1K6"
	},
	{
		"latlng" : "43.66638, -79.39085",
		"friendly_name" : "Burwash Residence (Lower Houses)",
		"building_code" : "505",
		"address" : "89  Charles Street West",
		"image" : "http://map.utoronto.ca/_assets/_images/_buildings_pics/LB.jpg",
		"campus" : "utsg",
		"city" : "Toronto",
		"country" : "Canada",
		"postal_code" : "M5S 1K6"
	},
	{
		"latlng" : "43.66692, -79.39106",
		"friendly_name" : "Burwash Residence (Upper Houses)",
		"building_code" : "505A",
		"address" : "89  Charles Street West",
		"image" : "http://map.utoronto.ca/_assets/_images/_buildings_pics/UB.jpg",
		"campus" : "utsg",
		"city" : "Toronto",
		"country" : "Canada",
		"postal_code" : "M5S 1K6"
	},
	{
		"latlng" : "43.66043, -79.39176",
		"friendly_name" : "C. David Naylor Building (Formerly Tanz Building)",
		"building_code" : "011",
		"address" : "6  Queen's Park Crescent West",
		"image" : "http://map.utoronto.ca/_assets/_images/_buildings_pics/default.jpg",
		"campus" : "utsg",
		"city" : "Toronto",
		"country" : "Canada",
		"postal_code" : "M5S 3H2"
	},
	{
		"latlng" : "43.66192, -79.39292",
		"friendly_name" : "Canadiana Gallery",
		"building_code" : "047",
		"address" : "14  Queen's Park Crescent West",
		"image" : "http://map.utoronto.ca/_assets/_images/_buildings_pics/CG.jpg",
		"campus" : "utsg",
		"city" : "Toronto",
		"country" : "Canada",
		"postal_code" : "M5S 3K9",
		"offices" : [{"name" : "Criminology, Centre of","room" : "229","site" : "http://criminology.utoronto.ca/"},{"name" : "Public Policy &amp; Governance, School of","room" : "321","site" : "http://www.publicpolicy.utoronto.ca/"}]
	},
	{
		"latlng" : "43.6652, -79.38869",
		"friendly_name" : "Cardinal Flahiff Building",
		"building_code" : "430",
		"address" : "95  St. Joseph Street",
		"image" : "http://map.utoronto.ca/_assets/_images/_buildings_pics/CF.jpg",
		"campus" : "utsg",
		"city" : "Toronto",
		"country" : "Canada",
		"postal_code" : "M5S 2R9"
	},
	{
		"latlng" : "43.66523, -79.39051",
		"friendly_name" : "Carr Hall",
		"building_code" : "426",
		"address" : "100  St. Joseph Street",
		"image" : "http://map.utoronto.ca/_assets/_images/_buildings_pics/CR.jpg",
		"campus" : "utsg",
		"city" : "Toronto",
		"country" : "Canada",
		"postal_code" : "M5S 1J4",
		"offices" : [{"name" : "Italian Studies, Dept of","room" : "204","site" : "http://www.utoronto.ca/italian/"}]
	},
	{
		"latlng" : "43.66003, -79.39774",
		"friendly_name" : "Central Steam Plant",
		"building_code" : "018",
		"address" : "17  Russell Street",
		"image" : "http://map.utoronto.ca/_assets/_images/_buildings_pics/ST.jpg",
		"campus" : "utsg",
		"city" : "Toronto",
		"country" : "Canada",
		"postal_code" : "M5S 2S2"
	},
	{
		"latlng" : "43.66899, -79.38648",
		"friendly_name" : "Charles St. West-30",
		"building_code" : "790",
		"address" : "30  Charles St. West",
		"image" : "http://map.utoronto.ca/_assets/_images/_buildings_pics/XX790.jpg",
		"campus" : "utsg",
		"city" : "Toronto",
		"country" : "Canada",
		"postal_code" : "M4Y 1R5"
	},
	{
		"latlng" : "43.6681, -79.38765",
		"friendly_name" : "Charles St. West-35",
		"building_code" : "791",
		"address" : "35  Charles St. West",
		"image" : "http://map.utoronto.ca/_assets/_images/_buildings_pics/XX791.jpg",
		"campus" : "utsg",
		"city" : "Toronto",
		"country" : "Canada",
		"postal_code" : "M4Y 1R6",
		"offices" : [{"name" : "Student Family Housing","room" : "101","site" : "http://www.studentfamilyhousing.utoronto.ca"}]
	},
	{
		"latlng" : "43.66784, -79.39",
		"friendly_name" : "Charles Street West-65",
		"building_code" : "516",
		"address" : "65  Charles Street West",
		"image" : "http://map.utoronto.ca/_assets/_images/_buildings_pics/LH.jpg",
		"campus" : "utsg",
		"city" : "Toronto",
		"country" : "Canada",
		"postal_code" : "M5S 1K5"
	},
	{
		"latlng" : "43.65431, -79.38536",
		"friendly_name" : "Chestnut Residence and Conference Centre",
		"building_code" : "158",
		"address" : "89  Chestnut Street",
		"image" : "http://map.utoronto.ca/_assets/_images/_buildings_pics/CN.jpg",
		"campus" : "utsg",
		"city" : "Toronto",
		"country" : "Canada",
		"postal_code" : "M5G 1R1",
		"offices" : [{"name" : "89 Chestnut Residence","room" : " ","site" : "http://www.chestnutresidence.utoronto.ca/"}]
	},
	{
		"latlng" : "43.66294, -79.4002",
		"friendly_name" : "Clara Benson Building",
		"building_code" : "068",
		"address" : "320  Huron Street",
		"image" : "http://map.utoronto.ca/_assets/_images/_buildings_pics/BN.jpg",
		"campus" : "utsg",
		"city" : "Toronto",
		"country" : "Canada",
		"postal_code" : "M5S 3J7",
		"offices" : [{"name" : "Kinesiology and Phys Ed-Curricular, Fac of","room" : "102","site" : "http://www.physical.utoronto.ca/"}]
	},
	{
		"latlng" : "43.66503, -79.3993",
		"friendly_name" : "Claude T. Bissell Building",
		"building_code" : "006A",
		"address" : "140  St. George Street",
		"image" : "http://map.utoronto.ca/_assets/_images/_buildings_pics/BL.jpg",
		"campus" : "utsg",
		"city" : "Toronto",
		"country" : "Canada",
		"postal_code" : "M5S 3G6",
		"offices" : [{"name" : "Faculty of Information","room" : "211","site" : "http://www.ischool.utoronto.ca/"},{"name" : "McLuhan Prg in Culture &amp; Technology","room" : "211","site" : "http://mcluhan.ischool.utoronto.ca/"}]
	},
	{
		"latlng" : "43.65816, -79.39745",
		"friendly_name" : "College Street-229",
		"building_code" : "179",
		"address" : "229  College Street",
		"image" : "http://map.utoronto.ca/_assets/_images/_buildings_pics/default.jpg",
		"campus" : "utsg",
		"city" : "Toronto",
		"country" : "Canada",
		"postal_code" : "M5T 1R4",
		"offices" : [{"name" : "UTemp","room" : "208","site" : "http://www.jobs.utoronto.ca/utemp.htm"},{"name" : "Ancillary Services","room" : "215","site" : "http://www.businessaffairs.utoronto.ca/ancillary.htm"}]
	},
	{
		"latlng" : "43.66077, -79.38784",
		"friendly_name" : "College Street-88",
		"building_code" : "090",
		"address" : "88  College Street",
		"image" : "http://map.utoronto.ca/_assets/_images/_buildings_pics/ZC.jpg",
		"campus" : "utsg",
		"city" : "Toronto",
		"country" : "Canada",
		"postal_code" : "M5G 1L4"
	},
	{
		"latlng" : "43.66061, -79.38811",
		"friendly_name" : "College Street-92",
		"building_code" : "071",
		"address" : "92  College Street",
		"image" : "http://map.utoronto.ca/_assets/_images/_buildings_pics/OG.jpg",
		"campus" : "utsg",
		"city" : "Toronto",
		"country" : "Canada",
		"postal_code" : "M5S 1L5"
	},
	{
		"latlng" : "43.66077, -79.39539",
		"friendly_name" : "Convocation Hall",
		"building_code" : "010A",
		"address" : "31  King's College Circle",
		"image" : "http://map.utoronto.ca/_assets/_images/_buildings_pics/CH.jpg",
		"campus" : "utsg",
		"city" : "Toronto",
		"country" : "Canada",
		"postal_code" : "M5S 1A1"
	},
	{
		"latlng" : "43.65946, -79.3959",
		"friendly_name" : "Cumberland House",
		"building_code" : "026",
		"address" : "33  St. George Street",
		"image" : "http://map.utoronto.ca/_assets/_images/_buildings_pics/CU.jpg",
		"campus" : "utsg",
		"city" : "Toronto",
		"country" : "Canada",
		"postal_code" : "M5S 2E3",
		"offices" : [{"name" : "Centre for International Experience","room" : "101K","site" : "http://cie.utoronto.ca"}]
	},
	{
		"latlng" : "43.65963, -79.39469",
		"friendly_name" : "D.L. Pratt Building",
		"building_code" : "008A",
		"address" : "6  King's College Road",
		"image" : "http://map.utoronto.ca/_assets/_images/_buildings_pics/PT.jpg",
		"campus" : "utsg",
		"city" : "Toronto",
		"country" : "Canada",
		"postal_code" : "M5S 3H5"
	},
	{
		"latlng" : "43.65946, -79.40062",
		"friendly_name" : "Daniels Building",
		"building_code" : "054",
		"address" : "1  Spadina Crescent",
		"image" : "http://map.utoronto.ca/_assets/_images/_buildings_pics/default.jpg",
		"campus" : "utsg",
		"city" : "Toronto",
		"country" : "Canada",
		"postal_code" : "M5S 2J5",
		"offices" : [{"name" : "Architecture,Landscape &amp; Design,Fac of","room" : "115","site" : "http://www.daniels.utoronto.ca/"}]
	},
	{
		"latlng" : "43.65627, -79.38714",
		"friendly_name" : "Dentistry Building",
		"building_code" : "065",
		"address" : "124  Edward Street",
		"image" : "http://map.utoronto.ca/_assets/_images/_buildings_pics/DN.jpg",
		"campus" : "utsg",
		"city" : "Toronto",
		"country" : "Canada",
		"postal_code" : "M5G 1G6",
		"offices" : [{"name" : "Dentistry, Faculty of","room" : "104","site" : "http://www.utoronto.ca/dentistry/"},{"name" : "UTL-Dentistry Library","room" : "267","site" : "http://www.dentistry.library.utoronto.ca/"}]
	},
	{
		"latlng" : "43.66634, -79.39135",
		"friendly_name" : "E.J. Pratt Library",
		"building_code" : "514",
		"address" : "71  Queen's Park Crescent East",
		"image" : "http://map.utoronto.ca/_assets/_images/_buildings_pics/PR.jpg",
		"campus" : "utsg",
		"city" : "Toronto",
		"country" : "Canada",
		"postal_code" : "M5S 1K7"
	},
	{
		"latlng" : "43.66391, -79.40115",
		"friendly_name" : "Early Learning Centre",
		"building_code" : "129",
		"address" : "7  Glen Morris Street",
		"image" : "http://map.utoronto.ca/_assets/_images/_buildings_pics/ER.jpg",
		"campus" : "utsg",
		"city" : "Toronto",
		"country" : "Canada",
		"postal_code" : "M5S 1H9",
		"offices" : [{"name" : "Early Learning Centre","room" : "130","site" : "http://www.familycare.utoronto.ca/"}]
	},
	{
		"latlng" : "43.6611, -79.3993",
		"friendly_name" : "Earth Sciences Centre",
		"building_code" : "062",
		"address" : "33  Willcocks Street",
		"image" : "http://map.utoronto.ca/_assets/_images/_buildings_pics/ES.jpg",
		"campus" : "utsg",
		"city" : "Toronto",
		"country" : "Canada",
		"postal_code" : "M5S 3B3",
		"offices" : [{"name" : "Ecology&amp;Evolutionary Biology, Dept","room" : "3055","site" : "http://www.eeb.utoronto.ca/"},{"name" : "Environment, School of the","room" : "1016V","site" : "http://www.environment.utoronto.ca/"},{"name" : "Earth Sciences, Dept of","room" : "1066","site" : "http://www.geology.utoronto.ca/"},{"name" : "Forestry, Faculty of","room" : "1016R","site" : "http://www.forestry.utoronto.ca/"},{"name" : "UTL-Earth Sciences Centre Library","room" : "2091","site" : "http://discover.library.utoronto.ca/general-information/libraries/EARTHSCI/"}]
	},
	{
		"latlng" : "43.66655, -79.39458",
		"friendly_name" : "Edward Johnson Building",
		"building_code" : "051",
		"address" : "80  Queen's Park",
		"image" : "http://map.utoronto.ca/_assets/_images/_buildings_pics/EJ.jpg",
		"campus" : "utsg",
		"city" : "Toronto",
		"country" : "Canada",
		"postal_code" : "M5S 2C5",
		"offices" : [{"name" : "Music, Faculty of","room" : "145","site" : "http://www.music.utoronto.ca/"}]
	},
	{
		"latlng" : "43.65947, -79.3953",
		"friendly_name" : "Electrometallurgy Lab",
		"building_code" : "093",
		"address" : "11  King's College Road (rear)",
		"image" : "http://map.utoronto.ca/_assets/_images/_buildings_pics/default.jpg",
		"campus" : "utsg",
		"city" : "Toronto",
		"country" : "Canada",
		"postal_code" : "M5S 3J2"
	},
	{
		"latlng" : "43.66689, -79.39027",
		"friendly_name" : "Elmsley Hall",
		"building_code" : "405",
		"address" : "81  St. Mary Street",
		"image" : "http://map.utoronto.ca/_assets/_images/_buildings_pics/EH.jpg",
		"campus" : "utsg",
		"city" : "Toronto",
		"country" : "Canada",
		"postal_code" : "M5S 1J4"
	},
	{
		"latlng" : "43.66673, -79.39282",
		"friendly_name" : "Emmanuel College",
		"building_code" : "502",
		"address" : "75  Queen's Park",
		"image" : "http://map.utoronto.ca/_assets/_images/_buildings_pics/EM.jpg",
		"campus" : "utsg",
		"city" : "Toronto",
		"country" : "Canada",
		"postal_code" : "M5S 1K7",
		"offices" : [{"name" : "Victoria University Theology","room" : "102","site" : "http://www.emmanuel.utoronto.ca/"}]
	},
	{
		"latlng" : "43.6596, -79.39541",
		"friendly_name" : "Engineering Annex",
		"building_code" : "021",
		"address" : "11  King's College Road",
		"image" : "http://map.utoronto.ca/_assets/_images/_buildings_pics/EA.jpg",
		"campus" : "utsg",
		"city" : "Toronto",
		"country" : "Canada",
		"postal_code" : "M5S 1A4"
	},
	{
		"latlng" : "43.66812, -79.40046",
		"friendly_name" : "Enrolment Services",
		"building_code" : "127",
		"address" : "172 St. George Street",
		"image" : "http://map.utoronto.ca/_assets/_images/_buildings_pics/AD.jpg",
		"campus" : "utsg",
		"city" : "Toronto",
		"country" : "Canada",
		"postal_code" : "M5R 0A3",
		"offices" : [{"name" : "Enrolment Services","room" : "100","site" : "http://www.adm.utoronto.ca/"}]
	},
	{
		"latlng" : "43.65848, -79.39286",
		"friendly_name" : "Exam Centre",
		"building_code" : "155",
		"address" : "255  McCaul Street",
		"image" : "http://map.utoronto.ca/_assets/_images/_buildings_pics/EX.jpg",
		"campus" : "utsg",
		"city" : "Toronto",
		"country" : "Canada",
		"postal_code" : "M5T 1W7",
		"offices" : [{"name" : "Assistant VP, Facilities &amp; Services","room" : "400V","site" : "http://www.fs.utoronto.ca/"},{"name" : "Property Management","room" : "400V","site" : "http://www.fs.utoronto.ca/property.htm"},{"name" : "Sustainability Office","room" : "400V","site" : "http://www.sustainability.utoronto.ca"},{"name" : "Telecommunications","room" : "490","site" : "http://www.fs.utoronto.ca/telecomm.htm"},{"name" : "Utilities &amp; Building Operations","room" : "400V","site" : "http://www.fs.utoronto.ca/"},{"name" : "UPD&amp;C-Test &amp; Exam Services","room" : "340","site" : "http://osm.utoronto.ca/tes/"},{"name" : "UPD&amp;C-Design &amp; Engineering","room" : "400V","site" : "http://www.updc.utoronto.ca/design.htm"},{"name" : "UPD&amp;C-Project Development","room" : "400V","site" : "http://www.updc.utoronto.ca/Project_Development.htm"},{"name" : "UPD&amp;C-Project Management","room" : "400V","site" : "http://www.updc.utoronto.ca/capital.htm"}]
	},
	{
		"latlng" : "43.66829, -79.39773",
		"friendly_name" : "Factor-Inwentash Faculty of Social Work",
		"building_code" : "111",
		"address" : "246  Bloor Street West",
		"image" : "http://map.utoronto.ca/_assets/_images/_buildings_pics/SK.jpg",
		"campus" : "utsg",
		"city" : "Toronto",
		"country" : "Canada",
		"postal_code" : "M5S 1V4",
		"offices" : [{"name" : "Social Work, Factor-Inwentash Faculty of","room" : "250","site" : "http://www.socialwork.utoronto.ca/"},{"name" : "I TS-Integrated Client Services","room" : "649K","site" : "http://www.its.utoronto.ca/"}]
	},
	{
		"latlng" : "43.66115, -79.40049",
		"friendly_name" : "Faculty Club",
		"building_code" : "075",
		"address" : "41  Willcocks Street",
		"image" : "http://map.utoronto.ca/_assets/_images/_buildings_pics/FC.jpg",
		"campus" : "utsg",
		"city" : "Toronto",
		"country" : "Canada",
		"postal_code" : "M5S 1C7",
		"offices" : [{"name" : "Faculty Club, U of T","room" : " ","site" : "http://www.facultyclub.utoronto.ca/"}]
	},
	{
		"latlng" : "43.66603, -79.39404",
		"friendly_name" : "Faculty of Law",
		"building_code" : "040",
		"address" : "78  Queen's Park",
		"image" : "http://map.utoronto.ca/_assets/_images/_buildings_pics/LW.jpg",
		"campus" : "utsg",
		"city" : "Toronto",
		"country" : "Canada",
		"postal_code" : "M5S 2C5"
	},
	{
		"latlng" : "43.66669, -79.39396",
		"friendly_name" : "Falconer Hall",
		"building_code" : "050",
		"address" : "84  Queen's Park",
		"image" : "http://map.utoronto.ca/_assets/_images/_buildings_pics/FH.jpg",
		"campus" : "utsg",
		"city" : "Toronto",
		"country" : "Canada",
		"postal_code" : "M5S 2C5",
		"offices" : [{"name" : "Law, Faculty of","room" : "110","site" : "http://www.law.utoronto.ca"},{"name" : "Student’s Law Society","room" : "101","site" : "http://sls.sa.utoronto.ca/"}]
	},
	{
		"latlng" : "43.66406, -79.40203",
		"friendly_name" : "Fasken Martineau Building",
		"building_code" : "151",
		"address" : "655  Spadina Avenue",
		"image" : "http://map.utoronto.ca/_assets/_images/_buildings_pics/LG.jpg",
		"campus" : "utsg",
		"city" : "Toronto",
		"country" : "Canada",
		"postal_code" : "M5S 2H9",
		"offices" : [{"name" : "Downtown Legal Services","room" : "100K","site" : "http://dls.sa.utoronto.ca/"}]
	},
	{
		"latlng" : "43.65879, -79.39745",
		"friendly_name" : "Fields Inst for Research in Math Science",
		"building_code" : "105",
		"address" : "222  College Street",
		"image" : "http://map.utoronto.ca/_assets/_images/_buildings_pics/FI.jpg",
		"campus" : "utsg",
		"city" : "Toronto",
		"country" : "Canada",
		"postal_code" : "M5T 3J1",
		"offices" : [{"name" : "Engineering Career Centre","room" : "106","site" : "http://www.engineeringcareers.utoronto.ca"},{"name" : "Fields Institute","room" : "220V","site" : "http://www.fields.utoronto.ca"}]
	},
	{
		"latlng" : "43.66546, -79.39081",
		"friendly_name" : "Fisher House",
		"building_code" : "420",
		"address" : "59  Queen's Park Crescent East",
		"image" : "http://map.utoronto.ca/_assets/_images/_buildings_pics/FS.jpg",
		"campus" : "utsg",
		"city" : "Toronto",
		"country" : "Canada",
		"postal_code" : "M5S 2C4"
	},
	{
		"latlng" : "43.66006, -79.39245",
		"friendly_name" : "FitzGerald Building",
		"building_code" : "025",
		"address" : "150  College Street",
		"image" : "http://map.utoronto.ca/_assets/_images/_buildings_pics/FG.jpg",
		"campus" : "utsg",
		"city" : "Toronto",
		"country" : "Canada",
		"postal_code" : "M5S 1A8",
		"offices" : [{"name" : "Biomedical Communications, Div of","room" : "75A","site" : "http://www.bmc.med.utoronto.ca/bmc"},{"name" : "Nutritional Sciences, Dept of","room" : "316","site" : "http://www.utoronto.ca/nutrisci/"},{"name" : "Anesthesia, Dept. of","room" : "121","site" : "http://www.anesthesia.utoronto.ca/"},{"name" : "Medical Imaging, Department of","room" : "113","site" : "http://medical-imaging.utoronto.ca/Page16.aspx"}]
	},
	{
		"latlng" : "43.66551, -79.38935",
		"friendly_name" : "Founders House",
		"building_code" : "428",
		"address" : "1  Elmsley Place",
		"image" : "http://map.utoronto.ca/_assets/_images/_buildings_pics/BH.jpg",
		"campus" : "utsg",
		"city" : "Toronto",
		"country" : "Canada",
		"postal_code" : " "
	},
	{
		"latlng" : "43.6582, -79.39709",
		"friendly_name" : "Gage Building",
		"building_code" : "082",
		"address" : "223  College Street",
		"image" : "http://map.utoronto.ca/_assets/_images/_buildings_pics/GA.jpg",
		"campus" : "utsg",
		"city" : "Toronto",
		"country" : "Canada",
		"postal_code" : "M5T 1R4"
	},
	{
		"latlng" : "43.65988, -79.39619",
		"friendly_name" : "Galbraith Building",
		"building_code" : "070",
		"address" : "35  St. George Street",
		"image" : "http://map.utoronto.ca/_assets/_images/_buildings_pics/GB.jpg",
		"campus" : "utsg",
		"city" : "Toronto",
		"country" : "Canada",
		"postal_code" : "M5S 1A4",
		"offices" : [{"name" : "Civil Engineering, Dept of","room" : "105","site" : "http://www.civil.engineering.utoronto.ca/"}]
	},
	{
		"latlng" : "43.66582, -79.3971",
		"friendly_name" : "George Ignatieff Theatre",
		"building_code" : "603",
		"address" : "15  Devonshire Place",
		"image" : "http://map.utoronto.ca/_assets/_images/_buildings_pics/GI.jpg",
		"campus" : "utsg",
		"city" : "Toronto",
		"country" : "Canada",
		"postal_code" : "M5S 1H8"
	},
	{
		"latlng" : "43.66567, -79.39691",
		"friendly_name" : "Gerald Larkin Building",
		"building_code" : "602",
		"address" : "15  Devonshire Place",
		"image" : "http://map.utoronto.ca/_assets/_images/_buildings_pics/LA.jpg",
		"campus" : "utsg",
		"city" : "Toronto",
		"country" : "Canada",
		"postal_code" : "M5S 1H8",
		"offices" : [{"name" : "Ethics, Centre for","room" : "245","site" : "http://www.ethics.utoronto.ca"}]
	},
	{
		"latlng" : "43.6622, -79.39385",
		"friendly_name" : "Gerstein Science Information Centre in the Sigmund Samuel Library Bldg",
		"building_code" : "003",
		"address" : "7 and 9 King's College Circle",
		"image" : "http://map.utoronto.ca/_assets/_images/_buildings_pics/SM.jpg",
		"campus" : "utsg",
		"city" : "Toronto",
		"country" : "Canada",
		"postal_code" : "M5S 3K1",
		"offices" : [{"name" : "UTL-Gerstein Science Info Centre","room" : "1300","site" : "http://www.library.utoronto.ca/gerstein/index.html"}]
	},
	{
		"latlng" : "43.66574, -79.39004",
		"friendly_name" : "Gilson House",
		"building_code" : "422",
		"address" : "8  Elmsley Place",
		"image" : "http://map.utoronto.ca/_assets/_images/_buildings_pics/GH.jpg",
		"campus" : "utsg",
		"city" : "Toronto",
		"country" : "Canada",
		"postal_code" : " "
	},
	{
		"latlng" : "43.66723, -79.3984",
		"friendly_name" : "Goldring Centre for High Performance Sport",
		"building_code" : "042",
		"address" : "100 Devonshire Place",
		"image" : "http://map.utoronto.ca/_assets/_images/_buildings_pics/default.jpg",
		"campus" : "utsg",
		"city" : "Toronto",
		"country" : "Canada",
		"postal_code" : " "
	},
	{
		"latlng" : "43.66764, -79.3926",
		"friendly_name" : "Goldring Student Centre",
		"building_code" : "507",
		"address" : "150  Charles Street West",
		"image" : "http://map.utoronto.ca/_assets/_images/_buildings_pics/default.jpg",
		"campus" : "utsg",
		"city" : "Toronto",
		"country" : "Canada",
		"postal_code" : "M5S 1K9"
	},
	{
		"latlng" : "43.66338, -79.40164",
		"friendly_name" : "Graduate House",
		"building_code" : "064",
		"address" : "60  Harbord Street",
		"image" : "http://map.utoronto.ca/_assets/_images/_buildings_pics/GD.jpg",
		"campus" : "utsg",
		"city" : "Toronto",
		"country" : "Canada",
		"postal_code" : "M5S 1A1",
		"offices" : [{"name" : "Graduate House","room" : "105","site" : "http://ghcommunity.info/gradhouse/"}]
	},
	{
		"latlng" : "43.66083, -79.40025",
		"friendly_name" : "Graduate Students' Union",
		"building_code" : "056",
		"address" : "16  Bancroft Avenue",
		"image" : "http://map.utoronto.ca/_assets/_images/_buildings_pics/GU.jpg",
		"campus" : "utsg",
		"city" : "Toronto",
		"country" : "Canada",
		"postal_code" : "M5S 1C1",
		"offices" : [{"name" : "Graduate Students’ Union","room" : "107","site" : "http://www.gsu.utoronto.ca/"}]
	},
	{
		"latlng" : "43.6637, -79.39452",
		"friendly_name" : "Hart House",
		"building_code" : "002",
		"address" : "7  Hart House Circle",
		"image" : "http://map.utoronto.ca/_assets/_images/_buildings_pics/HH.jpg",
		"campus" : "utsg",
		"city" : "Toronto",
		"country" : "Canada",
		"postal_code" : "M5S 3H3",
		"offices" : [{"name" : "Hart House Theatre","room" : "B20B","site" : "http://www.harthouse.ca/hart-house-theatre"},{"name" : "C.I.U.T. Radio","room" : "1039C","site" : "http://www.ciut.fm/"},{"name" : "Hart House Facilities","room" : "1004","site" : "http://www.harthouse.utoronto.ca/"}]
	},
	{
		"latlng" : "43.65994, -79.39364",
		"friendly_name" : "Haultain Building",
		"building_code" : "024",
		"address" : "170  College Street (rear of)",
		"image" : "http://map.utoronto.ca/_assets/_images/_buildings_pics/HA.jpg",
		"campus" : "utsg",
		"city" : "Toronto",
		"country" : "Canada",
		"postal_code" : "M5S 3E3"
	},
	{
		"latlng" : "43.65904, -79.39288",
		"friendly_name" : "Health Sciences Building",
		"building_code" : "154",
		"address" : "155  College Street",
		"image" : "http://map.utoronto.ca/_assets/_images/_buildings_pics/HS.jpg",
		"campus" : "utsg",
		"city" : "Toronto",
		"country" : "Canada",
		"postal_code" : "M5T 1P8",
		"offices" : [{"name" : "Health Policy, Mgmt&amp;Evaluation, Inst of","room" : "425","site" : "http://ihpme.utoronto.ca/"},{"name" : "Bioethics, Joint Centre for","room" : "754","site" : "http://jcb.utoronto.ca"},{"name" : "School of Public Health, Dalla Lana","room" : "680","site" : "http://www.phs.utoronto.ca/"},{"name" : "Bioethics, Joint Centre for","room" : "754","site" : "http://jcb.utoronto.ca"},{"name" : "Nursing, Lawrence S. Bloomberg Faculty of","room" : "130","site" : "http://bloomberg.nursing.utoronto.ca/"}]
	},
	{
		"latlng" : "43.6593, -79.39824",
		"friendly_name" : "Huron Street-215",
		"building_code" : "067",
		"address" : "215  Huron Street",
		"image" : "http://map.utoronto.ca/_assets/_images/_buildings_pics/HU.jpg",
		"campus" : "utsg",
		"city" : "Toronto",
		"country" : "Canada",
		"postal_code" : "M5S 1A2",
		"offices" : [{"name" : "Environmental Health &amp; Safety","room" : "702","site" : "http://www.ehs.utoronto.ca/Page11.aspx"},{"name" : "Anti-Racism &amp; Cultural Diversity","room" : "603","site" : "http://www.antiracism.utoronto.ca/"},{"name" : "Sexual Harassment Office","room" : "603","site" : "http://www.utoronto.ca/sho/"},{"name" : "I TS-Business Operations&amp;Administration","room" : "531","site" : ""},{"name" : "I TS-Enterprise App&amp;SolutionsIntegration","room" : "502","site" : "http://www.its.utoronto.ca/"},{"name" : "I TS-Telecommunications","room" : "502","site" : ""},{"name" : "Anti-Racism &amp; Cultural Diversity","room" : "603","site" : "http://www.antiracism.utoronto.ca/"},{"name" : "Human Resources Department","room" : "808","site" : "http://www.hrandequity.utoronto.ca/"},{"name" : "Sexual Harassment Office","room" : "603","site" : "http://www.utoronto.ca/sho/"},{"name" : "Status of Women Office","room" : "603","site" : "http://status-women.utoronto.ca/"},{"name" : "Chief Financial Officer CFO","room" : "203","site" : "http://www.finance.utoronto.ca"},{"name" : "Financial Services CFO","room" : "205","site" : "http://www.finance.utoronto.ca/"},{"name" : "Procurement Services CFO","room" : "327","site" : "http://www.procurement.utoronto.ca/"},{"name" : "Students For Barrier-free Access","room" : "924","site" : "http://sba.sa.utoronto.ca/"}]
	},
	{
		"latlng" : "43.66457, -79.40069",
		"friendly_name" : "Huron Street-370",
		"building_code" : "138",
		"address" : "370  Huron Street",
		"image" : "http://map.utoronto.ca/_assets/_images/_buildings_pics/CA.jpg",
		"campus" : "utsg",
		"city" : "Toronto",
		"country" : "Canada",
		"postal_code" : "M5S 2G4",
		"offices" : [{"name" : "Campus Co-Op Day Care Centre","room" : "300","site" : "http://www.familycare.utoronto.ca/"}]
	},
	{
		"latlng" : "43.66557, -79.39948",
		"friendly_name" : "Innis College",
		"building_code" : "132",
		"address" : "2  Sussex Avenue",
		"image" : "http://map.utoronto.ca/_assets/_images/_buildings_pics/IN.jpg",
		"campus" : "utsg",
		"city" : "Toronto",
		"country" : "Canada",
		"postal_code" : "M5S 1J5",
		"offices" : [{"name" : "Innis College","room" : "117","site" : "http://www.utoronto.ca/innis/"}]
	},
	{
		"latlng" : "43.66592, -79.39877",
		"friendly_name" : "Innis College Student Residence",
		"building_code" : "133",
		"address" : "111  St. George Street",
		"image" : "http://map.utoronto.ca/_assets/_images/_buildings_pics/IS.jpg",
		"campus" : "utsg",
		"city" : "Toronto",
		"country" : "Canada",
		"postal_code" : "M5S 2E8",
		"offices" : [{"name" : "Innis College Residence","room" : "118","site" : "http://innisresidence.utoronto.ca/"}]
	},
	{
		"latlng" : "43.66723, -79.39245",
		"friendly_name" : "Isabel Bader Theatre",
		"building_code" : "509",
		"address" : "93  Charles St. West",
		"image" : "http://map.utoronto.ca/_assets/_images/_buildings_pics/BT.jpg",
		"campus" : "utsg",
		"city" : "Toronto",
		"country" : "Canada",
		"postal_code" : "M5S 1K9",
		"offices" : [{"name" : "Comparative Literature, Centre for","room" : "314","site" : "http://complit.utoronto.ca/"}]
	},
	{
		"latlng" : "43.66485, -79.38953",
		"friendly_name" : "J. M. Kelly Library",
		"building_code" : "429",
		"address" : "113  St. Joseph Street",
		"image" : "http://map.utoronto.ca/_assets/_images/_buildings_pics/KL.jpg",
		"campus" : "utsg",
		"city" : "Toronto",
		"country" : "Canada",
		"postal_code" : "M5S 1J4"
	},
	{
		"latlng" : "43.66209, -79.39666",
		"friendly_name" : "J. Robert S. Prichard Alumni House",
		"building_code" : "019",
		"address" : "21  King's College Circle",
		"image" : "http://map.utoronto.ca/_assets/_images/_buildings_pics/DR.jpg",
		"campus" : "utsg",
		"city" : "Toronto",
		"country" : "Canada",
		"postal_code" : "M5S 3J3",
		"offices" : [{"name" : "University Advancement, Division of","room" : "100","site" : "http://www.advancement.utoronto.ca/"},{"name" : "Strategic Communications","room" : "219","site" : "http://www.universityrelations.utoronto.ca"}]
	},
	{
		"latlng" : "43.66766, -79.40032",
		"friendly_name" : "Jackman Humanities Building",
		"building_code" : "128",
		"address" : "170  St. George Street",
		"image" : "http://map.utoronto.ca/_assets/_images/_buildings_pics/JH.jpg",
		"campus" : "utsg",
		"city" : "Toronto",
		"country" : "Canada",
		"postal_code" : "M5R 2M8",
		"offices" : [{"name" : "Diaspora &amp; Transnational Studies, Centre","room" : "230","site" : "http://www.utoronto.ca/cdts/"},{"name" : "English, Dept of","room" : "610","site" : "http://www.utoronto.ca/english/"},{"name" : "Jackman Humanities Institute","room" : "1025","site" : "http://www.humanities.utoronto.ca/"},{"name" : "Jewish Studies, Centre for","room" : "218","site" : "http://www.cjs.utoronto.ca/"},{"name" : "Philosophy, Dept of","room" : "400A","site" : "http://www.philosophy.utoronto.ca/"},{"name" : "Records of Early English Drama","room" : "812","site" : "http://www.reed.utoronto.ca/"},{"name" : "Religion, Dept &amp; Centre for Study of","room" : "310","site" : "http://www.religion.utoronto.ca/"}]
	},
	{
		"latlng" : "43.66445, -79.39945",
		"friendly_name" : "John P. Robarts Library Building",
		"building_code" : "006",
		"address" : "130  St. George Street",
		"image" : "http://map.utoronto.ca/_assets/_images/_buildings_pics/RL.jpg",
		"campus" : "utsg",
		"city" : "Toronto",
		"country" : "Canada",
		"postal_code" : "M5S 1A5",
		"offices" : [{"name" : "Computing in Humanities&amp;Social Sci","room" : "14297","site" : "http://www.chass.utoronto.ca"},{"name" : "Documents of Early England Data Set","room" : "14290","site" : "http://www.utoronto.ca/deeds/"},{"name" : "Dictionary of Canadian Biography","room" : "14343","site" : "http://www.utoronto.ca/dcb-dbc"},{"name" : "East Asian Studies, Dept of","room" : "14087","site" : "http://www.eas.utoronto.ca/"},{"name" : "Research Data Centre, Tor Reg Stat Can","room" : "7032","site" : "http://www.utoronto.ca/rdc"},{"name" : "UTL-Administrative Services","room" : "2005","site" : "http://www.library.utoronto.ca"},{"name" : "UTL-Archives","room" : "2005","site" : ""},{"name" : "UTL-East Asian Library","room" : "8049","site" : "http://discover.library.utoronto.ca/general-information/libraries/EASTASIAN/"},{"name" : "UTL-Information Technology Services","room" : "7030","site" : "http://www.library.utoronto.ca/its/digital-web.html"},{"name" : "UTL-Internet Archive","room" : "7030","site" : ""},{"name" : "UTL-Materials Processing","room" : "2005","site" : ""},{"name" : "UTL-Media Commons","room" : "3001","site" : ""},{"name" : "UTL-Reference Department","room" : "2005","site" : ""},{"name" : "UTL-Ctr for Teaching Support &amp; Innovation","room" : "4029","site" : ""},{"name" : "UTL-Special Libraries","room" : "2005","site" : ""},{"name" : "UTL-Information Commons","room" : "1100C","site" : "http://www.utoronto.ca/welcome.html/"},{"name" : "Ctr for Teaching Support &amp; Innovation","room" : "4047","site" : ""}]
	},
	{
		"latlng" : "43.66136, -79.39696",
		"friendly_name" : "Knox College",
		"building_code" : "575",
		"address" : "59  St. George Street",
		"image" : "http://map.utoronto.ca/_assets/_images/_buildings_pics/KX.jpg",
		"campus" : "utsg",
		"city" : "Toronto",
		"country" : "Canada",
		"postal_code" : "M5S 2E6",
		"offices" : [{"name" : "Nona Macdonald Visitors Centre","room" : "B18","site" : "http://discover.utoronto.ca/"},{"name" : "Knox College","room" : "122V","site" : "http://www.knox.utoronto.ca/"}]
	},
	{
		"latlng" : "43.66061, -79.40059",
		"friendly_name" : "Koffler House",
		"building_code" : "145",
		"address" : "569  Spadina Crescent",
		"image" : "http://map.utoronto.ca/_assets/_images/_buildings_pics/KP.jpg",
		"campus" : "utsg",
		"city" : "Toronto",
		"country" : "Canada",
		"postal_code" : "M5S 2J7",
		"offices" : [{"name" : "Community Partnerships, Centre for","room" : "315","site" : "http://www.ccp.utoronto.ca/"},{"name" : "Multi-Faith Ctr for Spiritual Sdy/Prac","room" : "308","site" : "http://www.multifaith.utoronto.ca"}]
	},
	{
		"latlng" : "43.65917, -79.39689",
		"friendly_name" : "Koffler Student Services Centre",
		"building_code" : "143",
		"address" : "214  College Street",
		"image" : "http://map.utoronto.ca/_assets/_images/_buildings_pics/KS.jpg",
		"campus" : "utsg",
		"city" : "Toronto",
		"country" : "Canada",
		"postal_code" : "M5T 2Z9",
		"offices" : [{"name" : "Student Success Centre","room" : "A150","site" : ""},{"name" : "Academic Success","room" : "A150","site" : "http://www.asc.utoronto.ca/"},{"name" : "Career Exploration &amp; Education","room" : "A150","site" : "http://www.careers.utoronto.ca/"},{"name" : "Counselling &amp; Psychological Services","room" : "M111","site" : "http://www.caps.utoronto.ca/main.htm"},{"name" : "Health &amp; Wellness Centre","room" : "232","site" : "http://www.studentlife.utoronto.ca/hwc"},{"name" : "Housing","room" : "A150","site" : "http://www.housing.utoronto.ca/"},{"name" : "Student Life, Office of Asst VP","room" : "M101","site" : "http://www.studentlife.utoronto.ca/"},{"name" : "Family Care Office","room" : "A103F","site" : "http://www.familycare.utoronto.ca"}]
	},
	{
		"latlng" : "43.6614, -79.39781",
		"friendly_name" : "Lash Miller Chemical Laboratories",
		"building_code" : "073",
		"address" : "80  St. George Street",
		"image" : "http://map.utoronto.ca/_assets/_images/_buildings_pics/LM.jpg",
		"campus" : "utsg",
		"city" : "Toronto",
		"country" : "Canada",
		"postal_code" : "M5S 3H6",
		"offices" : [{"name" : "Chemistry, Dept of","room" : "151","site" : "http://www.chem.utoronto.ca/"}]
	},
	{
		"latlng" : "43.6595, -79.39339",
		"friendly_name" : "Lassonde Mining Building",
		"building_code" : "007",
		"address" : "170  College Street",
		"image" : "http://map.utoronto.ca/_assets/_images/_buildings_pics/MB.jpg",
		"campus" : "utsg",
		"city" : "Toronto",
		"country" : "Canada",
		"postal_code" : "M5S 3E3"
	},
	{
		"latlng" : "43.66967, -79.40607",
		"friendly_name" : "Leighton Goldie McCarthy House (Child Study)",
		"building_code" : "053",
		"address" : "45  Walmer Road",
		"image" : "http://map.utoronto.ca/_assets/_images/_buildings_pics/WR.jpg",
		"campus" : "utsg",
		"city" : "Toronto",
		"country" : "Canada",
		"postal_code" : "M5R 2X2",
		"offices" : [{"name" : "OISE-Institute of Child Study","room" : "106","site" : "http://www.oise.utoronto.ca/ICS/"}]
	},
	{
		"latlng" : "43.65996, -79.3917",
		"friendly_name" : "Leslie L. Dan Pharmacy Building",
		"building_code" : "161",
		"address" : "144  College Street",
		"image" : "http://map.utoronto.ca/_assets/_images/_buildings_pics/PB.jpg",
		"campus" : "utsg",
		"city" : "Toronto",
		"country" : "Canada",
		"postal_code" : "M5S 3M2",
		"offices" : [{"name" : "Pharmacy, Leslie Dan Faculty of","room" : "150A","site" : "http://www.pharmacy.utoronto.ca/"}]
	},
	{
		"latlng" : "43.66835, -79.39367",
		"friendly_name" : "Lillian Massey Building",
		"building_code" : "528",
		"address" : "125 Queen's Park",
		"image" : "http://map.utoronto.ca/_assets/_images/_buildings_pics/LI.jpg",
		"campus" : "utsg",
		"city" : "Toronto",
		"country" : "Canada",
		"postal_code" : "M5S 2C7",
		"offices" : [{"name" : "Classics, Dept of","room" : "108","site" : "http://www.chass.utoronto.ca/classics/"},{"name" : "Medieval Studies, Centre for","room" : "306","site" : "http://medieval.utoronto.ca/"}]
	},
	{
		"latlng" : "43.66736, -79.3901",
		"friendly_name" : "Loretto College",
		"building_code" : "401",
		"address" : "70  St. Mary Street",
		"image" : "http://map.utoronto.ca/_assets/_images/_buildings_pics/LC.jpg",
		"campus" : "utsg",
		"city" : "Toronto",
		"country" : "Canada",
		"postal_code" : "M5S 1J3"
	},
	{
		"latlng" : "43.66315, -79.39468",
		"friendly_name" : "Louis B. Stewart Observatory (UTSU)",
		"building_code" : "120",
		"address" : "12  Hart House Circle",
		"image" : "http://map.utoronto.ca/_assets/_images/_buildings_pics/SO.jpg",
		"campus" : "utsg",
		"city" : "Toronto",
		"country" : "Canada",
		"postal_code" : "M5S 3J9",
		"offices" : [{"name" : "University of Toronto Students’ Union","room" : "105","site" : "http://www.utsu.ca"}]
	},
	{
		"latlng" : "43.66435, -79.40107",
		"friendly_name" : "Luella Massey Studio Theatre",
		"building_code" : "091",
		"address" : "4  Glen Morris Street",
		"image" : "http://map.utoronto.ca/_assets/_images/_buildings_pics/GM.jpg",
		"campus" : "utsg",
		"city" : "Toronto",
		"country" : "Canada",
		"postal_code" : "M5S 1J1"
	},
	{
		"latlng" : "43.66177, -79.39705",
		"friendly_name" : "Macdonald-Mowat House",
		"building_code" : "172",
		"address" : "63  St. George Street",
		"image" : "http://map.utoronto.ca/_assets/_images/_buildings_pics/MM.jpg",
		"campus" : "utsg",
		"city" : "Toronto",
		"country" : "Canada",
		"postal_code" : "M5S 2Z9"
	},
	{
		"latlng" : "43.66826, -79.39252",
		"friendly_name" : "Margaret Addison Hall",
		"building_code" : "508",
		"address" : "140  Charles Street West",
		"image" : "http://map.utoronto.ca/_assets/_images/_buildings_pics/MG.jpg",
		"campus" : "utsg",
		"city" : "Toronto",
		"country" : "Canada",
		"postal_code" : "M5S 1K9"
	},
	{
		"latlng" : "43.66564, -79.39002",
		"friendly_name" : "Maritain House",
		"building_code" : "423",
		"address" : "6  Elmsley Place",
		"image" : "http://map.utoronto.ca/_assets/_images/_buildings_pics/MN.jpg",
		"campus" : "utsg",
		"city" : "Toronto",
		"country" : "Canada",
		"postal_code" : " "
	},
	{
		"latlng" : "43.66484, -79.39728",
		"friendly_name" : "Massey College",
		"building_code" : "034",
		"address" : "4  Devonshire Place",
		"image" : "http://map.utoronto.ca/_assets/_images/_buildings_pics/MA.jpg",
		"campus" : "utsg",
		"city" : "Toronto",
		"country" : "Canada",
		"postal_code" : "M5S 2E1",
		"offices" : [{"name" : "Massey College","room" : "P102","site" : "http://www.masseycollege.ca/"}]
	},
	{
		"latlng" : "43.66615, -79.3997",
		"friendly_name" : "Max Gluskin House",
		"building_code" : "104",
		"address" : "150  St. George Street",
		"image" : "http://map.utoronto.ca/_assets/_images/_buildings_pics/GE.jpg",
		"campus" : "utsg",
		"city" : "Toronto",
		"country" : "Canada",
		"postal_code" : "M5S 3G7",
		"offices" : [{"name" : "Economics, Dept of","room" : "146","site" : "http://www.economics.utoronto.ca/"}]
	},
	{
		"latlng" : "43.65857, -79.3936",
		"friendly_name" : "McCaul Street-254/256",
		"building_code" : "083",
		"address" : "254-256   McCaul Street",
		"image" : "http://map.utoronto.ca/_assets/_images/_buildings_pics/RM.jpg",
		"campus" : "utsg",
		"city" : "Toronto",
		"country" : "Canada",
		"postal_code" : "M5T 1W5",
		"offices" : [{"name" : "SciNet","room" : "235","site" : "http://www.scinet.utoronto.ca/"},{"name" : "Senior College","room" : "412","site" : "http://www.faculty.utoronto.ca/arc.htm"},{"name" : "Independent Weekly","room" : "106","site" : ""}]
	},
	{
		"latlng" : "43.66543, -79.38987",
		"friendly_name" : "McCorkell House",
		"building_code" : "427",
		"address" : "2  Elmsley Place",
		"image" : "http://map.utoronto.ca/_assets/_images/_buildings_pics/default.jpg",
		"campus" : "utsg",
		"city" : "Toronto",
		"country" : "Canada",
		"postal_code" : " "
	},
	{
		"latlng" : "43.66071, -79.39827",
		"friendly_name" : "McLennan Physical Laboratories",
		"building_code" : "078",
		"address" : "255  Huron Street",
		"image" : "http://map.utoronto.ca/_assets/_images/_buildings_pics/MP.jpg",
		"campus" : "utsg",
		"city" : "Toronto",
		"country" : "Canada",
		"postal_code" : "M5S 1A7",
		"offices" : [{"name" : "Optical Sciences, Institute for","room" : "331","site" : "http://www.optics.utoronto.ca"},{"name" : "Physics, Dept of","room" : "301","site" : "http://www.physics.utoronto.ca/"},{"name" : "Theoretical Astrophysics, Can Inst","room" : "1403","site" : "http://www.cita.utoronto.ca/"}]
	},
	{
		"latlng" : "43.66111, -79.39287",
		"friendly_name" : "McMurrich Building",
		"building_code" : "004",
		"address" : "12  Queen's Park Crescent W",
		"image" : "http://map.utoronto.ca/_assets/_images/_buildings_pics/MR.jpg",
		"campus" : "utsg",
		"city" : "Toronto",
		"country" : "Canada",
		"postal_code" : "M5S 1S8",
		"offices" : [{"name" : "Ombudsperson, Off of the University","room" : "102","site" : "http://www.utoronto.ca/ombudsperson/"},{"name" : "Vice-Provost, Faculty and Academic Life","room" : "103","site" : "http://www.provost.utoronto.ca"},{"name" : "UPD&amp;C-Campus &amp; Facilities Planning","room" : "416","site" : "http://www.campusplanning.utoronto.ca/"},{"name" : "UPD&amp;C-Academic &amp; Campus Events ACE","room" : "402","site" : "http://osm.utoronto.ca/"},{"name" : "Research Services Office RSO","room" : "304","site" : "http://www.research.utoronto.ca/"},{"name" : "Research Oversight &amp; Compliance Office ROCO","room" : "202V","site" : ""}]
	},
	{
		"latlng" : "43.65993, -79.39403",
		"friendly_name" : "Mechanical Engineering Building",
		"building_code" : "022",
		"address" : "5  King's College Road",
		"image" : "http://map.utoronto.ca/_assets/_images/_buildings_pics/MC.jpg",
		"campus" : "utsg",
		"city" : "Toronto",
		"country" : "Canada",
		"postal_code" : "M5S 3G8",
		"offices" : [{"name" : "Mechanical &amp; Industrial Engineering","room" : "105","site" : "http://www.mie.utoronto.ca/"}]
	},
	{
		"latlng" : "43.66074, -79.39373",
		"friendly_name" : "Medical Sciences Building",
		"building_code" : "005",
		"address" : "1  King's College Circle",
		"image" : "http://map.utoronto.ca/_assets/_images/_buildings_pics/MS.jpg",
		"campus" : "utsg",
		"city" : "Toronto",
		"country" : "Canada",
		"postal_code" : "M5S 1A8",
		"offices" : [{"name" : "Dean’s Office Medicine","room" : "2109","site" : "http://www.facmed.utoronto.ca/"},{"name" : "Anatomy, Division of Surgery","room" : "1156","site" : "http://www.anatomy.utoronto.ca/"},{"name" : "Biochemistry, Dept of","room" : "5207","site" : "http://biochemistry.utoronto.ca/"},{"name" : "Immunology, Dept of","room" : "7207","site" : "http://www.immunology.utoronto.ca/"},{"name" : "Molecular Genetics, Dept of","room" : "4386","site" : "http://www.moleculargenetics.utoronto.ca/"},{"name" : "Pharmacology and Toxicology, Dept of","room" : "4207","site" : "http://www.pharmtox.utoronto.ca/"},{"name" : "Physiology, Dept of","room" : "3209","site" : "http://www.physiology.utoronto.ca/"},{"name" : "Laboratory Medicine &amp; Pathobiology","room" : "6209","site" : "http://www.lmp.facmed.utoronto.ca/"},{"name" : "Medical Science, Institute of","room" : "7213","site" : "http://www.ims.utoronto.ca/"},{"name" : "Medicine, Dept of","room" : "7221","site" : ""},{"name" : "Teaching Laboratories, Div of Med","room" : "3371","site" : "http://teachinglabs.med.utoronto.ca/"},{"name" : "Discovery Commons","room" : "3172","site" : "http://dc.med.utoronto.ca/"},{"name" : "MedStore","room" : "1234","site" : "https://www.uoftmedstore.com/"},{"name" : "Microscopy Imaging Lab Med","room" : "1239","site" : "http://www.medresearch.utoronto.ca/mil_contact.html"},{"name" : "Vice-Dean Research Medicine","room" : "2331","site" : ""},{"name" : "Medical Society","room" : "2171A","site" : "http://www.torontomeds.com/"}]
	},
	{
		"latlng" : "43.6656, -79.39086",
		"friendly_name" : "More House",
		"building_code" : "419",
		"address" : "59  Queen's Park Crescent East",
		"image" : "http://map.utoronto.ca/_assets/_images/_buildings_pics/MH.jpg",
		"campus" : "utsg",
		"city" : "Toronto",
		"country" : "Canada",
		"postal_code" : "M5S 2C4"
	},
	{
		"latlng" : "43.6631, -79.39761",
		"friendly_name" : "Morrison Hall",
		"building_code" : "101",
		"address" : "75  St. George Street",
		"image" : "http://map.utoronto.ca/_assets/_images/_buildings_pics/MO.jpg",
		"campus" : "utsg",
		"city" : "Toronto",
		"country" : "Canada",
		"postal_code" : "M5S 2E5"
	},
	{
		"latlng" : "43.66507, -79.39635",
		"friendly_name" : "Munk School of Global Affairs - Graham Library",
		"building_code" : "012C",
		"address" : "5  Devonshire Place",
		"image" : "http://map.utoronto.ca/_assets/_images/_buildings_pics/MU.jpg",
		"campus" : "utsg",
		"city" : "Toronto",
		"country" : "Canada",
		"postal_code" : "M5S 3K7"
	},
	{
		"latlng" : "43.66747, -79.39852",
		"friendly_name" : "Munk School of Global Affairs at the Observatory",
		"building_code" : "089",
		"address" : "315  Bloor Street West",
		"image" : "http://map.utoronto.ca/_assets/_images/_buildings_pics/MK.jpg",
		"campus" : "utsg",
		"city" : "Toronto",
		"country" : "Canada",
		"postal_code" : "M5S 1A3"
	},
	{
		"latlng" : "43.6653, -79.39679",
		"friendly_name" : "Munk School of Global Affairs at Trinity",
		"building_code" : "012A",
		"address" : "1  Devonshire Place",
		"image" : "http://map.utoronto.ca/_assets/_images/_buildings_pics/MU.jpg",
		"campus" : "utsg",
		"city" : "Toronto",
		"country" : "Canada",
		"postal_code" : "M5S 3K7",
		"offices" : [{"name" : "European,Russian&amp;Eurasian Stds, Ctr","room" : "N125","site" : "http://www.utoronto.ca/ceres/"},{"name" : "Asian Institute","room" : "N228","site" : "http://webapp.mcis.utoronto.ca/ai/"},{"name" : "Munk School of Global Affairs","room" : "S165","site" : "http://www.munkschool.utoronto.ca/"}]
	},
	{
		"latlng" : "43.66479, -79.39015",
		"friendly_name" : "Muzzo Family Alumni Hall",
		"building_code" : "407",
		"address" : "121  St. Joseph Street",
		"image" : "http://map.utoronto.ca/_assets/_images/_buildings_pics/AH.jpg",
		"campus" : "utsg",
		"city" : "Toronto",
		"country" : "Canada",
		"postal_code" : "M5S 1J4",
		"offices" : [{"name" : "Slavic Languages &amp; Literatures,Dept","room" : "431","site" : "http://www.utoronto.ca/slavic/"},{"name" : "St. Michael’s College","room" : "207","site" : "http://stmikes.utoronto.ca/"}]
	},
	{
		"latlng" : "43.66101, -79.40078",
		"friendly_name" : "New College III",
		"building_code" : "131",
		"address" : "45  Willcocks Street",
		"image" : "http://map.utoronto.ca/_assets/_images/_buildings_pics/NR.jpg",
		"campus" : "utsg",
		"city" : "Toronto",
		"country" : "Canada",
		"postal_code" : "M5S 1C7",
		"offices" : [{"name" : "Knowledge Media Design Institute","room" : "306","site" : "http://kmdi.utoronto.ca/"}]
	},
	{
		"latlng" : "43.66119, -79.39627",
		"friendly_name" : "Nona Macdonald Visitors Centre",
		"building_code" : "575A",
		"address" : "25 King's College Circle",
		"image" : "http://map.utoronto.ca/_assets/_images/_buildings_pics/VI.jpg",
		"campus" : "utsg",
		"city" : "Toronto",
		"country" : "Canada",
		"postal_code" : "M5S 1A1"
	},
	{
		"latlng" : "43.66641, -79.39218",
		"friendly_name" : "Northrop Frye Hall",
		"building_code" : "515",
		"address" : "73  Queen's Park Crescent East",
		"image" : "http://map.utoronto.ca/_assets/_images/_buildings_pics/NF.jpg",
		"campus" : "utsg",
		"city" : "Toronto",
		"country" : "Canada",
		"postal_code" : "M5S 1K7",
		"offices" : [{"name" : "Victoria University","room" : "106","site" : "http://www.vicu.utoronto.ca/"}]
	},
	{
		"latlng" : "43.66635, -79.38891",
		"friendly_name" : "Odette (Louis) Hall",
		"building_code" : "415",
		"address" : "50  St. Joseph Street",
		"image" : "http://map.utoronto.ca/_assets/_images/_buildings_pics/OH.jpg",
		"campus" : "utsg",
		"city" : "Toronto",
		"country" : "Canada",
		"postal_code" : "M5S 1J4",
		"offices" : [{"name" : "French, Dept of","room" : "210","site" : "http://www.french.utoronto.ca/"},{"name" : "Germanic Languages &amp; Literatures,Dept of","room" : "322","site" : "http://german.utoronto.ca/"}]
	},
	{
		"latlng" : "43.65881, -79.3925",
		"friendly_name" : "Old Admin Bldg (Board of Ed)",
		"building_code" : "156",
		"address" : "263  McCaul Street",
		"image" : "http://map.utoronto.ca/_assets/_images/_buildings_pics/OA.jpg",
		"campus" : "utsg",
		"city" : "Toronto",
		"country" : "Canada",
		"postal_code" : "M5T 1W7",
		"offices" : [{"name" : "Life Course &amp; Aging,Institute for","room" : "328","site" : "http://aging.utoronto.ca/"},{"name" : "Life Course &amp; Aging,Institute for","room" : "328","site" : "http://aging.utoronto.ca/"},{"name" : "Heath &amp; Well-being Programs &amp; Services","room" : "201","site" : "http://www.utoronto.ca/hrhome/hwb"}]
	},
	{
		"latlng" : "43.66828, -79.39846",
		"friendly_name" : "Ontario Institute for Studies in Education",
		"building_code" : "123",
		"address" : "252  Bloor Street West",
		"image" : "http://map.utoronto.ca/_assets/_images/_buildings_pics/OI.jpg",
		"campus" : "utsg",
		"city" : "Toronto",
		"country" : "Canada",
		"postal_code" : "M5S 1V6",
		"offices" : [{"name" : "OISE/UT-Adult Ed&amp;Counselling Psych","room" : "7195","site" : "http://aecp.oise.utoronto.ca/"},{"name" : "OISE-Continuing Education","room" : "5-103","site" : "http://conted.oise.utoronto.ca/Home.html"},{"name" : "OISE-Ctr de rech en ed francoont","room" : "6104","site" : "http://crefo.oise.utoronto.ca/ACCUEIL/?cms_page=index.html"},{"name" : "OISE-Ctr for Women’s Studies Ed","room" : "2225","site" : "http://www.oise.utoronto.ca/cwse/"},{"name" : "OISE-Curriculum,Teaching &amp; Learn","room" : "11-164","site" : "http://www.oise.utoronto.ca/ctl/Home/index.html"},{"name" : "OISE-Dean’s Office","room" : "12101","site" : "http://www.oise.utoronto.ca/oise/About_OISE/Office_of_the_Dean/index.html"},{"name" : "OISE-Education Commons","room" : "3395","site" : "http://www.oise.utoronto.ca/ec/"},{"name" : "OISE-Applied Psych &amp; Human Development","room" : "9196","site" : "http://www.oise.utoronto.ca/aphd/"},{"name" : "OISE-Fraser Mustard Inst of Human Development","room" : "7195","site" : "http://www.oise.utoronto.ca/humandevelopment"},{"name" : "OISE-Operations","room" : "C100","site" : "http://legacy.oise.utoronto.ca/os/"},{"name" : "OISE-Initial Teacher Education","room" : "4-455","site" : "http://www.oise.utoronto.ca/ite/"},{"name" : "OISE-Psychoeducational Clinic","room" : "7296","site" : "http://legacy.oise.utoronto.ca/research/clinic/?cms_page=clinic/index.html"},{"name" : "OISE-Registrar’s Office","room" : "4-455","site" : "http://www.oise.utoronto.ca/ro/"},{"name" : "OISE-Social Justice Ed","room" : "12-222","site" : "http://www.oise.utoronto.ca/hsssje/"},{"name" : "OISE-Student Services","room" : "8-225","site" : "http://www.oise.utoronto.ca/ss/"},{"name" : "OISE-Leadership, Higher &amp; Adult Education","room" : "6200","site" : "http://www.oise.utoronto.ca/lhae/"},{"name" : "UTL-Ontario Institute for Studies in Education","room" : "2100","site" : ""}]
	},
	{
		"latlng" : "43.6658, -79.38944",
		"friendly_name" : "Phelan House",
		"building_code" : "417",
		"address" : "3  Elmsley Place",
		"image" : "http://map.utoronto.ca/_assets/_images/_buildings_pics/PH.jpg",
		"campus" : "utsg",
		"city" : "Toronto",
		"country" : "Canada",
		"postal_code" : " "
	},
	{
		"latlng" : "43.66569, -79.39104",
		"friendly_name" : "Pontifical Institute of Mediaeval Studies",
		"building_code" : "418",
		"address" : "59  Queen's Park Crescent East",
		"image" : "http://map.utoronto.ca/_assets/_images/_buildings_pics/PI.jpg",
		"campus" : "utsg",
		"city" : "Toronto",
		"country" : "Canada",
		"postal_code" : "M5S 2C4",
		"offices" : [{"name" : "Pontifical Institute","room" : " ","site" : "http://www.pims.ca/"}]
	},
	{
		"latlng" : "43.66424, -79.39041",
		"friendly_name" : "Queen's Park Crescent East-39",
		"building_code" : "097",
		"address" : "39  Queen's Park Crescent East",
		"image" : "http://map.utoronto.ca/_assets/_images/_buildings_pics/ME.jpg",
		"campus" : "utsg",
		"city" : "Toronto",
		"country" : "Canada",
		"postal_code" : "M5S 2C3"
	},
	{
		"latlng" : "43.66455, -79.39059",
		"friendly_name" : "Queen's Park Crescent East-43",
		"building_code" : "433",
		"address" : "43  Queen's Park Crescent East",
		"image" : "http://map.utoronto.ca/_assets/_images/_buildings_pics/XQ.jpg",
		"campus" : "utsg",
		"city" : "Toronto",
		"country" : "Canada",
		"postal_code" : "M5S 2C3"
	},
	{
		"latlng" : "43.66431, -79.38981",
		"friendly_name" : "Queen's Park Crsc. E.-39A",
		"building_code" : "097A",
		"address" : "39A   Queen's Park Crsc. E",
		"image" : "http://map.utoronto.ca/_assets/_images/_buildings_pics/ML.jpg",
		"campus" : "utsg",
		"city" : "Toronto",
		"country" : "Canada",
		"postal_code" : "M5S 2C3"
	},
	{
		"latlng" : "43.66312, -79.39898",
		"friendly_name" : "Ramsay Wright Laboratories",
		"building_code" : "072",
		"address" : "25  Harbord Street",
		"image" : "http://map.utoronto.ca/_assets/_images/_buildings_pics/RW.jpg",
		"campus" : "utsg",
		"city" : "Toronto",
		"country" : "Canada",
		"postal_code" : "M5S 3G5",
		"offices" : [{"name" : "Biological Cognition &amp; Timing, Centre for","room" : "260K","site" : "http://navigator.innovation.ca/en/navigator/CentreBiologicalTimingandCognitionCBTC"},{"name" : "Cell &amp; Systems Biology, Dept of","room" : "424","site" : "http://www.csb.utoronto.ca/"}]
	},
	{
		"latlng" : "43.66396, -79.39028",
		"friendly_name" : "Regis College",
		"building_code" : "478",
		"address" : "100 Wellesley Street West",
		"image" : "http://map.utoronto.ca/_assets/_images/_buildings_pics/default.jpg",
		"campus" : "utsg",
		"city" : "Toronto",
		"country" : "Canada",
		"postal_code" : "M5S 1C5",
		"offices" : [{"name" : "Regis College","room" : "109","site" : "http://www.regiscollege.ca/"}]
	},
	{
		"latlng" : "43.65546, -79.38917",
		"friendly_name" : "Rehabilitation Sciences Building",
		"building_code" : "152",
		"address" : "500  University Avenue",
		"image" : "http://map.utoronto.ca/_assets/_images/_buildings_pics/RU.jpg",
		"campus" : "utsg",
		"city" : "Toronto",
		"country" : "Canada",
		"postal_code" : "M5G 1V7",
		"offices" : [{"name" : "Occupational Sci &amp; Occ Therapy,Dept","room" : "160","site" : "http://www.ot.utoronto.ca/"},{"name" : "Physical Therapy, Dept of","room" : "160","site" : "http://www.physicaltherapy.utoronto.ca/"},{"name" : "Rehabilitation Science Sector","room" : "160","site" : "http://www.rehab.utoronto.ca/"},{"name" : "Rehabilitation Science Institute","room" : "160","site" : "http://www.gdrs.utoronto.ca/"},{"name" : "Speech-Language Pathology,Grad Dept","room" : "160","site" : "http://www.slp.utoronto.ca/"},{"name" : "Family &amp; Community Medicine,Dept of","room" : "553","site" : "http://dfcm.utoronto.ca/"},{"name" : "Continuing Education &amp; Professional Development Med","room" : "650","site" : "http://www.cepd.utoronto.ca/"},{"name" : "Postgraduate Medical Education","room" : "602","site" : "http://www.pgme.utoronto.ca/"}]
	},
	{
		"latlng" : "43.66005, -79.39323",
		"friendly_name" : "Rosebrugh Building",
		"building_code" : "020",
		"address" : "164  College Street",
		"image" : "http://map.utoronto.ca/_assets/_images/_buildings_pics/RS.jpg",
		"campus" : "utsg",
		"city" : "Toronto",
		"country" : "Canada",
		"postal_code" : "M5S 3G9",
		"offices" : [{"name" : "Biomaterials&amp;Biomedical Eng,Inst of","room" : "407","site" : "http://www.ibbme.utoronto.ca/"}]
	},
	{
		"latlng" : "43.66519, -79.39829",
		"friendly_name" : "Rotman School of Management",
		"building_code" : "134",
		"address" : "105  St. George Street",
		"image" : "http://map.utoronto.ca/_assets/_images/_buildings_pics/RT.jpg",
		"campus" : "utsg",
		"city" : "Toronto",
		"country" : "Canada",
		"postal_code" : "M5S 3E6",
		"offices" : [{"name" : "Management, Rotman School of","room" : "101","site" : "http://www.rotman.utoronto.ca/index.html"},{"name" : "Executive MBA Program - Management","room" : "375","site" : "http://emba.rotman.utoronto.ca/"}]
	},
	{
		"latlng" : "43.66742, -79.39082",
		"friendly_name" : "Rowell Jackman Hall",
		"building_code" : "518",
		"address" : "85  Charles Street West",
		"image" : "http://map.utoronto.ca/_assets/_images/_buildings_pics/RJ.jpg",
		"campus" : "utsg",
		"city" : "Toronto",
		"country" : "Canada",
		"postal_code" : "M5S 1K5"
	},
	{
		"latlng" : "43.66576, -79.38904",
		"friendly_name" : "Sam Sorbara Hall Student Residence",
		"building_code" : "435",
		"address" : "70  St. Joseph Street",
		"image" : "http://map.utoronto.ca/_assets/_images/_buildings_pics/SR.jpg",
		"campus" : "utsg",
		"city" : "Toronto",
		"country" : "Canada",
		"postal_code" : " "
	},
	{
		"latlng" : "43.66012, -79.3951",
		"friendly_name" : "Sandford Fleming Building",
		"building_code" : "009",
		"address" : "10  King's College Road",
		"image" : "http://map.utoronto.ca/_assets/_images/_buildings_pics/SF.jpg",
		"campus" : "utsg",
		"city" : "Toronto",
		"country" : "Canada",
		"postal_code" : "M5S 3G4",
		"offices" : [{"name" : "Electrical &amp; Computer Eng,Rogers Dept of","room" : "1024","site" : "http://www.ece.utoronto.ca/"},{"name" : "UTL-Engineering Library","room" : "2402","site" : "http://www.library.utoronto.ca/engineering/"},{"name" : "Engineering Society","room" : "740","site" : "http://skule.ca/"}]
	},
	{
		"latlng" : "43.6667, -79.39992",
		"friendly_name" : "School of Continuing Studies",
		"building_code" : "103",
		"address" : "158  St. George Street",
		"image" : "http://map.utoronto.ca/_assets/_images/_buildings_pics/CS.jpg",
		"campus" : "utsg",
		"city" : "Toronto",
		"country" : "Canada",
		"postal_code" : "M5S 2V8",
		"offices" : [{"name" : "School of Continuing Studies","room" : "100","site" : "http://learn.utoronto.ca/"}]
	},
	{
		"latlng" : "43.662, -79.39711",
		"friendly_name" : "School of Graduate Studies",
		"building_code" : "043",
		"address" : "65  St. George Street",
		"image" : "http://map.utoronto.ca/_assets/_images/_buildings_pics/GS.jpg",
		"campus" : "utsg",
		"city" : "Toronto",
		"country" : "Canada",
		"postal_code" : "M5S 2E5",
		"offices" : [{"name" : "School of Graduate Studies","room" : "102","site" : "http://www.sgs.utoronto.ca"}]
	},
	{
		"latlng" : "43.66238, -79.39866",
		"friendly_name" : "Sidney Smith Hall",
		"building_code" : "033",
		"address" : "100  St. George Street",
		"image" : "http://map.utoronto.ca/_assets/_images/_buildings_pics/SS.jpg",
		"campus" : "utsg",
		"city" : "Toronto",
		"country" : "Canada",
		"postal_code" : "M5S 3G3",
		"offices" : [{"name" : "Dean’s Office Arts &amp; Science","room" : "2005","site" : "http://www.artsci.utoronto.ca/"},{"name" : "Registrar - Arts &amp; Science","room" : "1006","site" : "http://www.artsci.utoronto.ca/main/administation/faculty-registrar"},{"name" : "Information &amp; Instructional Technology, Office of A&amp;S","room" : "572","site" : "http://www.chass.utoronto.ca"},{"name" : "Art, Department of","room" : "6036","site" : "http://www.art.utoronto.ca/"},{"name" : "History, Dept of","room" : "2074","site" : "http://www.history.utoronto.ca/"},{"name" : "Linguistics, Dept of","room" : "4073","site" : "http://linguistics.utoronto.ca/"},{"name" : "Geography &amp;  Planning, Dept of","room" : "5047","site" : "http://www.geog.utoronto.ca/"},{"name" : "Political Science, Dept of","room" : "3018","site" : "http://politics.utoronto.ca/"},{"name" : "Psychology, Dept of","room" : "4020","site" : "http://home.psych.utoronto.ca/"},{"name" : "Statistical Sciences, Dept of","room" : "6018","site" : "http://www.utstat.utoronto.ca/"},{"name" : "Assoc Part-time Undergrad StdAPUS","room" : "1089","site" : ""}]
	},
	{
		"latlng" : "43.66076, -79.39594",
		"friendly_name" : "Simcoe Hall",
		"building_code" : "010",
		"address" : "27  King's College Circle",
		"image" : "http://map.utoronto.ca/_assets/_images/_buildings_pics/SI.jpg",
		"campus" : "utsg",
		"city" : "Toronto",
		"country" : "Canada",
		"postal_code" : "M5S 1A1",
		"offices" : [{"name" : "Office of the Governing Council","room" : "106","site" : "http://www.governingcouncil.utoronto.ca/"},{"name" : "Convocation, Office of","room" : "102","site" : "http://www.convocation.utoronto.ca/"},{"name" : "The Chancellor","room" : "100","site" : ""},{"name" : "President, Office of the","room" : "206","site" : "http://www.president.utoronto.ca/"},{"name" : "Vice-President and Provost","room" : "225","site" : "http://www.provost.utoronto.ca/"},{"name" : "I TS-Chief Information Officer","room" : "05","site" : "http://www.its.utoronto.ca"},{"name" : "Planning &amp; Budget","room" : "240","site" : ""},{"name" : "Vice President Research","room" : "112","site" : "http://www.research.utoronto.ca/"},{"name" : "Vice-Pres &amp; Chief Advancement Officer","room" : "107","site" : "http://www.advancement.utoronto.ca/"},{"name" : "Vice-President University Relations","room" : "216","site" : "http://www.universityrelations.utoronto.ca/"},{"name" : "Govt, Institutional&amp;Community Relations","room" : "005","site" : "http://www.universityrelations.utoronto.ca/"},{"name" : "Vice President - Human Resources","room" : "112","site" : "http://www.hrandequity.utoronto.ca/"},{"name" : "Vice President University Operations","room" : "112","site" : ""}]
	},
	{
		"latlng" : "43.66264, -79.39753",
		"friendly_name" : "Sir Daniel Wilson Residence",
		"building_code" : "029",
		"address" : "73  St. George Street",
		"image" : "http://map.utoronto.ca/_assets/_images/_buildings_pics/SD.jpg",
		"campus" : "utsg",
		"city" : "Toronto",
		"country" : "Canada",
		"postal_code" : "M5S 2E5"
	},
	{
		"latlng" : "43.66351, -79.39522",
		"friendly_name" : "Soldiers' Tower",
		"building_code" : "102",
		"address" : "7  Hart House Circle",
		"image" : "http://map.utoronto.ca/_assets/_images/_buildings_pics/TR.jpg",
		"campus" : "utsg",
		"city" : "Toronto",
		"country" : "Canada",
		"postal_code" : "M5S 3H3"
	},
	{
		"latlng" : "43.65821, -79.3997",
		"friendly_name" : "Spadina Ave-455",
		"building_code" : "171",
		"address" : "455  Spadina Avenue",
		"image" : "http://map.utoronto.ca/_assets/_images/_buildings_pics/TT.jpg",
		"campus" : "utsg",
		"city" : "Toronto",
		"country" : "Canada",
		"postal_code" : "M5S 2G8",
		"offices" : [{"name" : "Accessibility Services","room" : "400","site" : "http://www.studentlife.utoronto.ca/as"}]
	},
	{
		"latlng" : "43.66601, -79.40284",
		"friendly_name" : "Spadina Ave-713",
		"building_code" : "142",
		"address" : "713  Spadina Avenue",
		"image" : "http://map.utoronto.ca/_assets/_images/_buildings_pics/SA.jpg",
		"campus" : "utsg",
		"city" : "Toronto",
		"country" : "Canada",
		"postal_code" : "M5S 2J4"
	},
	{
		"latlng" : "43.66446, -79.40223",
		"friendly_name" : "Spadina Avenue-665",
		"building_code" : "066",
		"address" : "665 Spadina Avenue",
		"image" : "http://map.utoronto.ca/_assets/_images/_buildings_pics/default.jpg",
		"campus" : "utsg",
		"city" : " ",
		"country" : "Canada",
		"postal_code" : " "
	},
	{
		"latlng" : "43.66572, -79.40265",
		"friendly_name" : "Spadina Avenue-703",
		"building_code" : "125",
		"address" : "703  Spadina Avenue",
		"image" : "http://map.utoronto.ca/_assets/_images/_buildings_pics/IA.jpg",
		"campus" : "utsg",
		"city" : "Toronto",
		"country" : "Canada",
		"postal_code" : "M5S 2J4",
		"offices" : [{"name" : "Internal Audit Department","room" : "100","site" : "http://www.internalaudit.utoronto.ca/"}]
	},
	{
		"latlng" : "43.6654, -79.40363",
		"friendly_name" : "Spadina Avenue-720",
		"building_code" : "189",
		"address" : "720  Spadina Avenue",
		"image" : "http://map.utoronto.ca/_assets/_images/_buildings_pics/FA.jpg",
		"campus" : "utsg",
		"city" : "Toronto",
		"country" : "Canada",
		"postal_code" : "M5S 2T9",
		"offices" : [{"name" : "Mathematical Finance Program","room" : "219","site" : "http://www.mmf.utoronto.ca/"},{"name" : "U of T Faculty Association","room" : "419","site" : "http://www.utfa.org/"}]
	},
	{
		"latlng" : "43.66967, -79.40534",
		"friendly_name" : "Spadina Road-56",
		"building_code" : "153",
		"address" : "56  Spadina Road",
		"image" : "http://map.utoronto.ca/_assets/_images/_buildings_pics/CD.jpg",
		"campus" : "utsg",
		"city" : "Toronto",
		"country" : "Canada",
		"postal_code" : " "
	},
	{
		"latlng" : "43.66632, -79.38917",
		"friendly_name" : "St. Basil's Church",
		"building_code" : "413",
		"address" : "50  St. Joseph Street",
		"image" : "http://map.utoronto.ca/_assets/_images/_buildings_pics/BS.jpg",
		"campus" : "utsg",
		"city" : "Toronto",
		"country" : "Canada",
		"postal_code" : "M5S IJ4"
	},
	{
		"latlng" : "43.66669, -79.3991",
		"friendly_name" : "St. George Street-121",
		"building_code" : "110",
		"address" : "121  St. George Street",
		"image" : "http://map.utoronto.ca/_assets/_images/_buildings_pics/IR.jpg",
		"campus" : "utsg",
		"city" : "Toronto",
		"country" : "Canada",
		"postal_code" : "M5S 2E8",
		"offices" : [{"name" : "Industrial Relations &amp; HR, Centre for","room" : "106","site" : "http://www.cirhr.utoronto.ca/"}]
	},
	{
		"latlng" : "43.66036, -79.39655",
		"friendly_name" : "St. George Street-45",
		"building_code" : "027",
		"address" : "45  St. George Street",
		"image" : "http://map.utoronto.ca/_assets/_images/_buildings_pics/PG.jpg",
		"campus" : "utsg",
		"city" : "Toronto",
		"country" : "Canada",
		"postal_code" : "M5S 2E5"
	},
	{
		"latlng" : "43.66066, -79.3966",
		"friendly_name" : "St. George Street-49",
		"building_code" : "039",
		"address" : "49  St. George Street",
		"image" : "http://map.utoronto.ca/_assets/_images/_buildings_pics/SG.jpg",
		"campus" : "utsg",
		"city" : "Toronto",
		"country" : "Canada",
		"postal_code" : "M5S 2E5"
	},
	{
		"latlng" : "43.6669, -79.39921",
		"friendly_name" : "St. George Street123",
		"building_code" : "088",
		"address" : "123  St. George Street",
		"image" : "http://map.utoronto.ca/_assets/_images/_buildings_pics/WA.jpg",
		"campus" : "utsg",
		"city" : "Toronto",
		"country" : "Canada",
		"postal_code" : "M5S 2E8",
		"offices" : [{"name" : "Transitional Year Programme","room" : "107","site" : "http://www.utoronto.ca/typ/"}]
	},
	{
		"latlng" : "43.66573, -79.39782",
		"friendly_name" : "St. Hilda's College",
		"building_code" : "608",
		"address" : "44  Devonshire Place",
		"image" : "http://map.utoronto.ca/_assets/_images/_buildings_pics/HI.jpg",
		"campus" : "utsg",
		"city" : "Toronto",
		"country" : "Canada",
		"postal_code" : "M5S 2E2"
	},
	{
		"latlng" : "43.66783, -79.3899",
		"friendly_name" : "Stephenson House",
		"building_code" : "513",
		"address" : "63  Charles Street West",
		"image" : "http://map.utoronto.ca/_assets/_images/_buildings_pics/SN.jpg",
		"campus" : "utsg",
		"city" : "Toronto",
		"country" : "Canada",
		"postal_code" : "M5S 1K5"
	},
	{
		"latlng" : "43.65923, -79.39207",
		"friendly_name" : "Stewart Building",
		"building_code" : "192",
		"address" : "149 College Street",
		"image" : "http://map.utoronto.ca/_assets/_images/_buildings_pics/EP.jpg",
		"campus" : "utsg",
		"city" : "Toronto",
		"country" : "Canada",
		"postal_code" : "M5T 1P5",
		"offices" : [{"name" : "Radiation Oncology","room" : "501","site" : "http://www.radonc.utoronto.ca/"},{"name" : "Surgery, Dept of","room" : "503","site" : "http://surgery.utoronto.ca/"},{"name" : "Executive Development Prog - Mgmt","room" : "204","site" : "http://ep.rotman.utoronto.ca/"}]
	},
	{
		"latlng" : "43.6654, -79.38998",
		"friendly_name" : "Sullivan House",
		"building_code" : "425",
		"address" : "96  St. Joseph Street",
		"image" : "http://map.utoronto.ca/_assets/_images/_buildings_pics/SV.jpg",
		"campus" : "utsg",
		"city" : "Toronto",
		"country" : "Canada",
		"postal_code" : " "
	},
	{
		"latlng" : "43.66501, -79.40181",
		"friendly_name" : "Sussex Avenue-40",
		"building_code" : "146",
		"address" : "40  Sussex Avenue",
		"image" : "http://map.utoronto.ca/_assets/_images/_buildings_pics/SU.jpg",
		"campus" : "utsg",
		"city" : "Toronto",
		"country" : "Canada",
		"postal_code" : "M5S 1J7"
	},
	{
		"latlng" : "43.66484, -79.40089",
		"friendly_name" : "Sussex Court",
		"building_code" : "077",
		"address" : "21  Sussex Avenue",
		"image" : "http://map.utoronto.ca/_assets/_images/_buildings_pics/SC.jpg",
		"campus" : "utsg",
		"city" : "Toronto",
		"country" : "Canada",
		"postal_code" : "M5S 1J6",
		"offices" : [{"name" : "Student Life Programs","room" : "322","site" : "http://www.studentlife.utoronto.ca/"},{"name" : "Campus Community Police Serv, UofT","room" : "115","site" : "http://www.campuspolice.utoronto.ca"},{"name" : "Sexual Education Centre","room" : "612","site" : "http://sec.sa.utoronto.ca"}]
	},
	{
		"latlng" : "43.66532, -79.39087",
		"friendly_name" : "Teefy Hall",
		"building_code" : "421",
		"address" : "57  Queen's Park Crescent East",
		"image" : "http://map.utoronto.ca/_assets/_images/_buildings_pics/TF.jpg",
		"campus" : "utsg",
		"city" : "Toronto",
		"country" : "Canada",
		"postal_code" : "M5S 2C4"
	},
	{
		"latlng" : "43.66016, -79.39288",
		"friendly_name" : "Terrence Donnelly Ctr for Cellular & Biomolecular Res",
		"building_code" : "160",
		"address" : "160  College Street",
		"image" : "http://map.utoronto.ca/_assets/_images/_buildings_pics/DC.jpg",
		"campus" : "utsg",
		"city" : "Toronto",
		"country" : "Canada",
		"postal_code" : "M5S 3E1",
		"offices" : [{"name" : "Banting&amp;Best Medical Research, Dept","room" : "130","site" : "http://thedonnellycentre.utoronto.ca/bandb.html"},{"name" : "Cellular &amp; Biomolecular Res, Ctr","room" : "230","site" : "http://tdccbr.med.utoronto.ca/"}]
	},
	{
		"latlng" : "43.66405, -79.39894",
		"friendly_name" : "Thomas Fisher Rare Book Library Building",
		"building_code" : "006B",
		"address" : "120  St. George Street",
		"image" : "http://map.utoronto.ca/_assets/_images/_buildings_pics/RB.jpg",
		"campus" : "utsg",
		"city" : "Toronto",
		"country" : "Canada",
		"postal_code" : "M5S 1A5",
		"offices" : [{"name" : "UTL-Fisher Rare Books Library","room" : "102","site" : "http://www.library.utoronto.ca/fisher/"}]
	},
	{
		"latlng" : "43.66476, -79.39065",
		"friendly_name" : "Toronto School of Theology",
		"building_code" : "434",
		"address" : "47  Queen's Park Crescent East",
		"image" : "http://map.utoronto.ca/_assets/_images/_buildings_pics/TH.jpg",
		"campus" : "utsg",
		"city" : "Toronto",
		"country" : "Canada",
		"postal_code" : "M5S 2C3",
		"offices" : [{"name" : "St. Michael’s College Theology","room" : " ","site" : "http://stmikes.utoronto.ca/theology/"},{"name" : "Toronto School of Theology","room" : "108","site" : "http://www.tst.edu/"}]
	},
	{
		"latlng" : "43.66514, -79.39556",
		"friendly_name" : "Trinity College",
		"building_code" : "600",
		"address" : "6  Hoskin Avenue",
		"image" : "http://map.utoronto.ca/_assets/_images/_buildings_pics/TC.jpg",
		"campus" : "utsg",
		"city" : "Toronto",
		"country" : "Canada",
		"postal_code" : "M5S 1H8",
		"offices" : [{"name" : "Trinity College","room" : "M110","site" : "http://www.trinity.utoronto.ca/"}]
	},
	{
		"latlng" : "43.6632, -79.39582",
		"friendly_name" : "University College",
		"building_code" : "001",
		"address" : "15  King's College Circle",
		"image" : "http://map.utoronto.ca/_assets/_images/_buildings_pics/UC.jpg",
		"campus" : "utsg",
		"city" : "Toronto",
		"country" : "Canada",
		"postal_code" : "M5S 3H7",
		"offices" : [{"name" : "University College","room" : "157","site" : "http://www.uc.utoronto.ca/"},{"name" : "University of Toronto Art Centre","room" : "118","site" : "http://www.utac.utoronto.ca/"},{"name" : "University College Residence","room" : "D015","site" : "http://www.uc.utoronto.ca/"}]
	},
	{
		"latlng" : "43.66338, -79.39747",
		"friendly_name" : "University College Union",
		"building_code" : "023",
		"address" : "79  St. George Street",
		"image" : "http://map.utoronto.ca/_assets/_images/_buildings_pics/UP.jpg",
		"campus" : "utsg",
		"city" : "Toronto",
		"country" : "Canada",
		"postal_code" : "M5S 2E5",
		"offices" : [{"name" : "Drama, Theatre and Performance Studies, Centre for","room" : "300","site" : "http://dramacentre.utoronto.ca/"}]
	},
	{
		"latlng" : "43.66724, -79.3963",
		"friendly_name" : "Varsity Centre",
		"building_code" : "030A",
		"address" : "299  Bloor Street West",
		"image" : "http://map.utoronto.ca/_assets/_images/_buildings_pics/VA.jpg",
		"campus" : "utsg",
		"city" : "Toronto",
		"country" : "Canada",
		"postal_code" : " "
	},
	{
		"latlng" : "43.66643, -79.39643",
		"friendly_name" : "Varsity Pavilion",
		"building_code" : "041",
		"address" : "299 Bloor Street West",
		"image" : "http://map.utoronto.ca/_assets/_images/_buildings_pics/VP.jpg",
		"campus" : "utsg",
		"city" : "Toronto",
		"country" : "Canada",
		"postal_code" : " "
	},
	{
		"latlng" : "43.6669, -79.39201",
		"friendly_name" : "Victoria College",
		"building_code" : "501",
		"address" : "91  Charles Street West",
		"image" : "http://map.utoronto.ca/_assets/_images/_buildings_pics/VC.jpg",
		"campus" : "utsg",
		"city" : "Toronto",
		"country" : "Canada",
		"postal_code" : "M5S 1K7",
		"offices" : [{"name" : "Hist &amp; Phil of Sci &amp; Tech, Inst","room" : "316","site" : "http://www.hps.utoronto.ca/"},{"name" : "Spanish &amp; Portuguese, Dept of","room" : "208","site" : "http://www.spanport.utoronto.ca/"}]
	},
	{
		"latlng" : "43.65912, -79.39519",
		"friendly_name" : "Wallberg Building",
		"building_code" : "008",
		"address" : "184-200   College Street",
		"image" : "http://map.utoronto.ca/_assets/_images/_buildings_pics/WB.jpg",
		"campus" : "utsg",
		"city" : "Toronto",
		"country" : "Canada",
		"postal_code" : "M56 3E5",
		"offices" : [{"name" : "Chemical Engineering &amp; Applied Chem","room" : "217","site" : "http://www.chem-eng.utoronto.ca"},{"name" : "Materials Sci &amp; Engineering,Dept of","room" : "140","site" : "http://www.mse.utoronto.ca/"}]
	},
	{
		"latlng" : "43.66279, -79.40102",
		"friendly_name" : "Warren Stevens Building",
		"building_code" : "068A",
		"address" : "55  Harbord Street",
		"image" : "http://map.utoronto.ca/_assets/_images/_buildings_pics/WS.jpg",
		"campus" : "utsg",
		"city" : "Toronto",
		"country" : "Canada",
		"postal_code" : "M5S 2W6",
		"offices" : [{"name" : "Kinesiology &amp; Phys Ed-Co-Curricular","room" : "1064","site" : "http://www.physical.utoronto.ca/"}]
	},
	{
		"latlng" : "43.66404, -79.38973",
		"friendly_name" : "Wellesley Street West -90",
		"building_code" : "098B",
		"address" : "90 Wellesley Street West",
		"image" : "http://map.utoronto.ca/_assets/_images/_buildings_pics/JP.jpg",
		"campus" : "utsg",
		"city" : "Toronto",
		"country" : "Canada",
		"postal_code" : "M5S 1C5"
	},
	{
		"latlng" : "43.66224, -79.40059",
		"friendly_name" : "Wetmore Hall-New College",
		"building_code" : "032",
		"address" : "300  Huron Street",
		"image" : "http://map.utoronto.ca/_assets/_images/_buildings_pics/WE.jpg",
		"campus" : "utsg",
		"city" : "Toronto",
		"country" : "Canada",
		"postal_code" : "M5S 2Z3",
		"offices" : [{"name" : "Human Biology Program","room" : "105","site" : "http://www.hmb.utoronto.ca/"},{"name" : "New College","room" : "107","site" : "http://www.newcollege.utoronto.ca/"}]
	},
	{
		"latlng" : "43.66376, -79.39794",
		"friendly_name" : "Whitney Hall",
		"building_code" : "013",
		"address" : "85  St. George Street",
		"image" : "http://map.utoronto.ca/_assets/_images/_buildings_pics/WT.jpg",
		"campus" : "utsg",
		"city" : "Toronto",
		"country" : "Canada",
		"postal_code" : "M5S 2E5"
	},
	{
		"latlng" : "43.66176, -79.40035",
		"friendly_name" : "Wilson Hall-New College",
		"building_code" : "032A",
		"address" : "40  Willcocks Street",
		"image" : "http://map.utoronto.ca/_assets/_images/_buildings_pics/WI.jpg",
		"campus" : "utsg",
		"city" : "Toronto",
		"country" : "Canada",
		"postal_code" : "M5S 1C6",
		"offices" : [{"name" : "Women and Gender Studies Institute","room" : "2036","site" : "http://www.wgsi.utoronto.ca"},{"name" : "New College Residence &amp; Food Serv","room" : "2047C","site" : "http://www.newcollege.utoronto.ca/residence.htm"}]
	},
	{
		"latlng" : "43.66601, -79.38949",
		"friendly_name" : "Windle House",
		"building_code" : "416",
		"address" : "5  Elmsley Place",
		"image" : "http://map.utoronto.ca/_assets/_images/_buildings_pics/WN.jpg",
		"campus" : "utsg",
		"city" : "Toronto",
		"country" : "Canada",
		"postal_code" : " "
	},
	{
		"latlng" : "43.6664, -79.39879",
		"friendly_name" : "Woodsworth College",
		"building_code" : "038",
		"address" : "119  St. George Street",
		"image" : "http://map.utoronto.ca/_assets/_images/_buildings_pics/WW.jpg",
		"campus" : "utsg",
		"city" : "Toronto",
		"country" : "Canada",
		"postal_code" : "M5S 1A9",
		"offices" : [{"name" : "Woodsworth College","room" : "B107","site" : "http://www.wdw.utoronto.ca/"}]
	},
	{
		"latlng" : "43.66733, -79.39933",
		"friendly_name" : "Woodsworth College Residence",
		"building_code" : "130",
		"address" : "321  Bloor St. West",
		"image" : "http://map.utoronto.ca/_assets/_images/_buildings_pics/WO.jpg",
		"campus" : "utsg",
		"city" : "Toronto",
		"country" : "Canada",
		"postal_code" : "M5S 1S5",
		"offices" : [{"name" : "Rotman Commerce","room" : "130","site" : "http://www.rotmancommerce.utoronto.ca"},{"name" : "Woodsworth Residence","room" : "140L","site" : "http://wdw.utoronto.ca/residence/"}]
	},
	{
		"latlng" : "43.66453, -79.39507",
		"friendly_name" : "Wycliffe College",
		"building_code" : "675",
		"address" : "5  Hoskin Avenue",
		"image" : "http://map.utoronto.ca/_assets/_images/_buildings_pics/WY.jpg",
		"campus" : "utsg",
		"city" : "Toronto",
		"country" : "Canada",
		"postal_code" : "M5S 1H7",
		"offices" : [{"name" : "Wycliffe College","room" : "102","site" : "http://www.wycliffecollege.ca"}]
	},
	{
		"latlng" : "43.54816, -79.66452",
		"friendly_name" : "Academic Annex",
		"building_code" : "335",
		"address" : "1795 Inner Circle",
		"image" : "http://map.utoronto.ca/_assets/_images/_buildings_pics/AX.jpg",
		"campus" : "utm",
		"city" : "Mississauga",
		"country" : "Canada",
		"postal_code" : "L5L 1C6"
	},
	{
		"latlng" : "43.55179, -79.66213",
		"friendly_name" : "Central Utilities Plant",
		"building_code" : "312",
		"address" : "1630 Outer Circle",
		"image" : "http://map.utoronto.ca/_assets/_images/_buildings_pics/XX312.jpg",
		"campus" : "utm",
		"city" : "Mississauga",
		"country" : "Canada",
		"postal_code" : " "
	},
	{
		"latlng" : "43.55003, -79.66308",
		"friendly_name" : "Communication, Culture & Technology",
		"building_code" : "329",
		"address" : "1800 MIddle Road",
		"image" : "http://map.utoronto.ca/_assets/_images/_buildings_pics/CC.jpg",
		"campus" : "utm",
		"city" : "Mississauga",
		"country" : "Canada",
		"postal_code" : "L5L 1C6"
	},
	{
		"latlng" : "43.5505, -79.66639",
		"friendly_name" : "Deerfield Hall",
		"building_code" : "340",
		"address" : "1535 Outer Circle",
		"image" : "http://map.utoronto.ca/_assets/_images/_buildings_pics/default.jpg",
		"campus" : "utm",
		"city" : "Mississauga",
		"country" : "Canada",
		"postal_code" : " "
	},
	{
		"latlng" : "43.54959, -79.66564",
		"friendly_name" : "Erindale Hall Residence (Phase VII)",
		"building_code" : "325",
		"address" : "1525 Outer Circle",
		"image" : "http://map.utoronto.ca/_assets/_images/_buildings_pics/XX325.jpg",
		"campus" : "utm",
		"city" : "Mississauga",
		"country" : "Canada",
		"postal_code" : "L5L 6A2"
	},
	{
		"latlng" : "43.54993, -79.66631",
		"friendly_name" : "Erindale Studio Theatre",
		"building_code" : "316",
		"address" : "1515 Outer Circle",
		"image" : "http://map.utoronto.ca/_assets/_images/_buildings_pics/DW.jpg",
		"campus" : "utm",
		"city" : "Mississauga",
		"country" : "Canada",
		"postal_code" : "L5L 1C6"
	},
	{
		"latlng" : "43.55291, -79.66553",
		"friendly_name" : "Forensic Anthropology Field School",
		"building_code" : "302",
		"address" : "3245 Principal's Road",
		"image" : "http://map.utoronto.ca/_assets/_images/_buildings_pics/default.jpg",
		"campus" : "utm",
		"city" : "Mississauga",
		"country" : "Canada",
		"postal_code" : " "
	},
	{
		"latlng" : "43.55095, -79.66282",
		"friendly_name" : "Hazel McCallion Academic Learning Centre",
		"building_code" : "331",
		"address" : "1675 Outer Circle",
		"image" : "http://map.utoronto.ca/_assets/_images/_buildings_pics/HM.jpg",
		"campus" : "utm",
		"city" : "Mississauga",
		"country" : "Canada",
		"postal_code" : "L5L 1C6"
	},
	{
		"latlng" : "43.55154, -79.66382",
		"friendly_name" : "Instructional Centre (UTM)",
		"building_code" : "334",
		"address" : "1599 Outer Circle",
		"image" : "http://map.utoronto.ca/_assets/_images/_buildings_pics/IB.jpg",
		"campus" : "utm",
		"city" : "Mississauga",
		"country" : "Canada",
		"postal_code" : "L5L 1C6"
	},
	{
		"latlng" : "43.54848, -79.66332",
		"friendly_name" : "Kaneff Centre",
		"building_code" : "314",
		"address" : "1833 Inner Circle",
		"image" : "http://map.utoronto.ca/_assets/_images/_buildings_pics/KN.jpg",
		"campus" : "utm",
		"city" : "Mississauga",
		"country" : "Canada",
		"postal_code" : "L5L 1C6"
	},
	{
		"latlng" : "43.54627, -79.66256",
		"friendly_name" : "Leacock Lane Res - Block P (Phase IV)",
		"building_code" : "323P",
		"address" : "1900 Outer Circle",
		"image" : "http://map.utoronto.ca/_assets/_images/_buildings_pics/default.jpg",
		"campus" : "utm",
		"city" : "Mississauga",
		"country" : "Canada",
		"postal_code" : "L5L 1J7"
	},
	{
		"latlng" : "43.54591, -79.66286",
		"friendly_name" : "Leacock Lane Res - Block Q (Phase IV)",
		"building_code" : "323Q",
		"address" : "1900 Outer Circle",
		"image" : "http://map.utoronto.ca/_assets/_images/_buildings_pics/default.jpg",
		"campus" : "utm",
		"city" : "Mississauga",
		"country" : "Canada",
		"postal_code" : "L5L 1J7"
	},
	{
		"latlng" : "43.54581, -79.66356",
		"friendly_name" : "Leacock Lane Res - Block R (Phase IV)",
		"building_code" : "323R",
		"address" : "1900 Outer Circle",
		"image" : "http://map.utoronto.ca/_assets/_images/_buildings_pics/default.jpg",
		"campus" : "utm",
		"city" : "Mississauga",
		"country" : "Canada",
		"postal_code" : "L5L 1J7"
	},
	{
		"latlng" : "43.54616, -79.66311",
		"friendly_name" : "Leacock Lane Res - Block S (Phase IV)",
		"building_code" : "323S",
		"address" : "1900 Outer Circle",
		"image" : "http://map.utoronto.ca/_assets/_images/_buildings_pics/default.jpg",
		"campus" : "utm",
		"city" : "Mississauga",
		"country" : "Canada",
		"postal_code" : "L5L 1J7"
	},
	{
		"latlng" : "43.55468, -79.66877",
		"friendly_name" : "Lislehurst (Principal's Residence)",
		"building_code" : "301",
		"address" : "3369 Principal's Road",
		"image" : "http://map.utoronto.ca/_assets/_images/_buildings_pics/default.jpg",
		"campus" : "utm",
		"city" : "Mississauga",
		"country" : "Canada",
		"postal_code" : " "
	},
	{
		"latlng" : "43.54605, -79.66121",
		"friendly_name" : "MaGrath Valley Res - Block T (Phase V)",
		"building_code" : "323T",
		"address" : "1499 The Collegeway",
		"image" : "http://map.utoronto.ca/_assets/_images/_buildings_pics/default.jpg",
		"campus" : "utm",
		"city" : "Mississauga",
		"country" : "Canada",
		"postal_code" : "L5L 1J7"
	},
	{
		"latlng" : "43.54555, -79.66106",
		"friendly_name" : "MaGrath Valley Res - Block U (Phase V)",
		"building_code" : "323U",
		"address" : "1499 The Collegeway",
		"image" : "http://map.utoronto.ca/_assets/_images/_buildings_pics/default.jpg",
		"campus" : "utm",
		"city" : "Mississauga",
		"country" : "Canada",
		"postal_code" : "L5L 1J7"
	},
	{
		"latlng" : "43.54548, -79.66187",
		"friendly_name" : "MaGrath Valley Res - Block V (Phase V)",
		"building_code" : "323V",
		"address" : "1499 The Collegeway",
		"image" : "http://map.utoronto.ca/_assets/_images/_buildings_pics/default.jpg",
		"campus" : "utm",
		"city" : "Mississauga",
		"country" : "Canada",
		"postal_code" : "L5L 1J7"
	},
	{
		"latlng" : "43.54574, -79.66162",
		"friendly_name" : "MaGrath Valley Res - Block W (Phase V)",
		"building_code" : "323W",
		"address" : "1499 The Collegeway",
		"image" : "http://map.utoronto.ca/_assets/_images/_buildings_pics/default.jpg",
		"campus" : "utm",
		"city" : "Mississauga",
		"country" : "Canada",
		"postal_code" : "L5L 1J7"
	},
	{
		"latlng" : "43.54588, -79.66222",
		"friendly_name" : "MaGrath Valley Res - Block X (Phase V)",
		"building_code" : "323X",
		"address" : "1499 The Collegeway",
		"image" : "http://map.utoronto.ca/_assets/_images/_buildings_pics/default.jpg",
		"campus" : "utm",
		"city" : "Mississauga",
		"country" : "Canada",
		"postal_code" : "L5L 1J7"
	},
	{
		"latlng" : "43.5462, -79.66178",
		"friendly_name" : "MaGrath Valley Res - Block Y (Phase V)",
		"building_code" : "323Y",
		"address" : "1499 The Collegeway",
		"image" : "http://map.utoronto.ca/_assets/_images/_buildings_pics/default.jpg",
		"campus" : "utm",
		"city" : "Mississauga",
		"country" : "Canada",
		"postal_code" : "L5L 1J7"
	},
	{
		"latlng" : "43.54789, -79.66572",
		"friendly_name" : "McLuhan Court Res - Block H (Phase II)",
		"building_code" : "323H",
		"address" : "3330 Residence Road",
		"image" : "http://map.utoronto.ca/_assets/_images/_buildings_pics/default.jpg",
		"campus" : "utm",
		"city" : "Mississauga",
		"country" : "Canada",
		"postal_code" : "L5L 1J7"
	},
	{
		"latlng" : "43.5475, -79.66595",
		"friendly_name" : "McLuhan Court Res - Block I (Phase II)",
		"building_code" : "323I",
		"address" : "3330 Residence Road",
		"image" : "http://map.utoronto.ca/_assets/_images/_buildings_pics/default.jpg",
		"campus" : "utm",
		"city" : "Mississauga",
		"country" : "Canada",
		"postal_code" : "L5L 1J7"
	},
	{
		"latlng" : "43.54772, -79.6666",
		"friendly_name" : "McLuhan Court Res - Block J (Phase II)",
		"building_code" : "323J",
		"address" : "3330 Residence Road",
		"image" : "http://map.utoronto.ca/_assets/_images/_buildings_pics/default.jpg",
		"campus" : "utm",
		"city" : "Mississauga",
		"country" : "Canada",
		"postal_code" : "L5L 1J7"
	},
	{
		"latlng" : "43.54806, -79.66628",
		"friendly_name" : "McLuhan Court Res - Block K (Phase II)",
		"building_code" : "323K",
		"address" : "3330 Residence Road",
		"image" : "http://map.utoronto.ca/_assets/_images/_buildings_pics/default.jpg",
		"campus" : "utm",
		"city" : "Mississauga",
		"country" : "Canada",
		"postal_code" : "L5L 1J7"
	},
	{
		"latlng" : "43.55103, -79.66593",
		"friendly_name" : "North Building",
		"building_code" : "311",
		"address" : "3359  Mississauga Road",
		"image" : "http://map.utoronto.ca/_assets/_images/_buildings_pics/NE.jpg",
		"campus" : "utm",
		"city" : "Mississauga",
		"country" : "Canada",
		"postal_code" : "L5L 1C6"
	},
	{
		"latlng" : "43.54877, -79.66598",
		"friendly_name" : "Oscar Peterson Hall (Phase VIII)",
		"building_code" : "326",
		"address" : "3375 Residence Road",
		"image" : "http://map.utoronto.ca/_assets/_images/_buildings_pics/XX326.jpg",
		"campus" : "utm",
		"city" : "Mississauga",
		"country" : "Canada",
		"postal_code" : "L5L 6A2"
	},
	{
		"latlng" : "43.55381, -79.66586",
		"friendly_name" : "Paleomagnetism Laboratory",
		"building_code" : "317",
		"address" : "3275 Principal's Road",
		"image" : "http://map.utoronto.ca/_assets/_images/_buildings_pics/default.jpg",
		"campus" : "utm",
		"city" : "Mississauga",
		"country" : "Canada",
		"postal_code" : "L5L 1C6"
	},
	{
		"latlng" : "43.54647, -79.66459",
		"friendly_name" : "Putnam Place Res - Block L  (Phase III)",
		"building_code" : "323L",
		"address" : "1930 Outer Circle",
		"image" : "http://map.utoronto.ca/_assets/_images/_buildings_pics/default.jpg",
		"campus" : "utm",
		"city" : "Mississauga",
		"country" : "Canada",
		"postal_code" : "L5L 1J7"
	},
	{
		"latlng" : "43.54666, -79.66507",
		"friendly_name" : "Putnam Place Res - Block M (Phase III)",
		"building_code" : "323M",
		"address" : "1930 Outer Circle",
		"image" : "http://map.utoronto.ca/_assets/_images/_buildings_pics/default.jpg",
		"campus" : "utm",
		"city" : "Mississauga",
		"country" : "Canada",
		"postal_code" : "L5L 1J7"
	},
	{
		"latlng" : "43.54695, -79.66511",
		"friendly_name" : "Putnam Place Res - Block N (Phase III)",
		"building_code" : "323N",
		"address" : "1930 Outer CIrcle",
		"image" : "http://map.utoronto.ca/_assets/_images/_buildings_pics/default.jpg",
		"campus" : "utm",
		"city" : "Mississauga",
		"country" : "Canada",
		"postal_code" : "L5L 1J7"
	},
	{
		"latlng" : "43.54688, -79.66449",
		"friendly_name" : "Putnam Place Res - Block O (Phase III)",
		"building_code" : "323O",
		"address" : "1930 Outer Circle",
		"image" : "http://map.utoronto.ca/_assets/_images/_buildings_pics/default.jpg",
		"campus" : "utm",
		"city" : "Mississauga",
		"country" : "Canada",
		"postal_code" : "L5L 1J7"
	},
	{
		"latlng" : "43.5482, -79.66089",
		"friendly_name" : "Recreation, Athletics & Wellness Centre",
		"building_code" : "332",
		"address" : "1825 Outer Circle",
		"image" : "http://map.utoronto.ca/_assets/_images/_buildings_pics/RA.jpg",
		"campus" : "utm",
		"city" : "Mississauga",
		"country" : "Canada",
		"postal_code" : "L5L 1C6"
	},
	{
		"latlng" : "43.54807, -79.66701",
		"friendly_name" : "Roy Ivor Hall Res - House A (Phase VI)",
		"building_code" : "324A",
		"address" : "3370 Residence Road",
		"image" : "http://map.utoronto.ca/_assets/_images/_buildings_pics/default.jpg",
		"campus" : "utm",
		"city" : "Mississauga",
		"country" : "Canada",
		"postal_code" : "L5L 1C6"
	},
	{
		"latlng" : "43.5484, -79.66744",
		"friendly_name" : "Roy Ivor Hall Res - House B (Phase VI)",
		"building_code" : "324B",
		"address" : "3370 Residence Road",
		"image" : "http://map.utoronto.ca/_assets/_images/_buildings_pics/default.jpg",
		"campus" : "utm",
		"city" : "Mississauga",
		"country" : "Canada",
		"postal_code" : "L5L 1C6"
	},
	{
		"latlng" : "43.54846, -79.66699",
		"friendly_name" : "Roy Ivor Hall Res - House C (Phase VI)",
		"building_code" : "324C",
		"address" : "3370 Residence Road",
		"image" : "http://map.utoronto.ca/_assets/_images/_buildings_pics/default.jpg",
		"campus" : "utm",
		"city" : "Mississauga",
		"country" : "Canada",
		"postal_code" : "L5L 1C6"
	},
	{
		"latlng" : "43.54882, -79.66698",
		"friendly_name" : "Roy Ivor Hall Res - House D (Phase VI)",
		"building_code" : "324D",
		"address" : "3370 Residence Road",
		"image" : "http://map.utoronto.ca/_assets/_images/_buildings_pics/default.jpg",
		"campus" : "utm",
		"city" : "Mississauga",
		"country" : "Canada",
		"postal_code" : "L5L 1C6"
	},
	{
		"latlng" : "43.54922, -79.6683",
		"friendly_name" : "Schreiberwood Res - Block A (Phase I)",
		"building_code" : "323A",
		"address" : "3400 Residence Road",
		"image" : "http://map.utoronto.ca/_assets/_images/_buildings_pics/default.jpg",
		"campus" : "utm",
		"city" : "Mississuaga",
		"country" : "Canada",
		"postal_code" : "L5L 1J7"
	},
	{
		"latlng" : "43.54913, -79.66788",
		"friendly_name" : "Schreiberwood Res - Block B (Phase I)",
		"building_code" : "323B",
		"address" : "3400 Residence Road",
		"image" : "http://map.utoronto.ca/_assets/_images/_buildings_pics/default.jpg",
		"campus" : "utm",
		"city" : "Mississauga",
		"country" : "Canada",
		"postal_code" : "L5L 1J7"
	},
	{
		"latlng" : "43.54872, -79.6677",
		"friendly_name" : "Schreiberwood Res - Block C (Phase I)",
		"building_code" : "323C",
		"address" : "3400 Residence Road",
		"image" : "http://map.utoronto.ca/_assets/_images/_buildings_pics/default.jpg",
		"campus" : "utm",
		"city" : "Mississauga",
		"country" : "Canada",
		"postal_code" : "L5L 1J7"
	},
	{
		"latlng" : "43.54907, -79.66738",
		"friendly_name" : "Schreiberwood Res - Block D (Phase I)",
		"building_code" : "323D",
		"address" : "3400 Residence Road",
		"image" : "http://map.utoronto.ca/_assets/_images/_buildings_pics/default.jpg",
		"campus" : "utm",
		"city" : "Mississauga",
		"country" : "Canada",
		"postal_code" : "L5L 1J7"
	},
	{
		"latlng" : "43.54972, -79.66779",
		"friendly_name" : "Schreiberwood Res - Block E (Phase I)",
		"building_code" : "323E",
		"address" : "3401 Residence  Road",
		"image" : "http://map.utoronto.ca/_assets/_images/_buildings_pics/default.jpg",
		"campus" : "utm",
		"city" : "Mississauga",
		"country" : "Canada",
		"postal_code" : "L5L 1J7"
	},
	{
		"latlng" : "43.54943, -79.66744",
		"friendly_name" : "Schreiberwood Res - Block F (Phase I)",
		"building_code" : "323F",
		"address" : "3401 Residence Road",
		"image" : "http://map.utoronto.ca/_assets/_images/_buildings_pics/default.jpg",
		"campus" : "utm",
		"city" : "Mississauga",
		"country" : "Canada",
		"postal_code" : "L5L 1J7"
	},
	{
		"latlng" : "43.54962, -79.6671",
		"friendly_name" : "Schreiberwood Res - Block G (Phase I)",
		"building_code" : "323G",
		"address" : "3401 Residence  Road",
		"image" : "http://map.utoronto.ca/_assets/_images/_buildings_pics/default.jpg",
		"campus" : "utm",
		"city" : "Mississauga",
		"country" : "Canada",
		"postal_code" : "L5L 1J7"
	},
	{
		"latlng" : "43.54964, -79.66194",
		"friendly_name" : "Terrence Donnelly Health Sciences Complex",
		"building_code" : "333",
		"address" : "1777 Outer Circle",
		"image" : "http://map.utoronto.ca/_assets/_images/_buildings_pics/default.jpg",
		"campus" : "utm",
		"city" : "Mississauga",
		"country" : "Canada",
		"postal_code" : "L5L 1C6"
	},
	{
		"latlng" : "43.54474, -79.66035",
		"friendly_name" : "UTM Alumni House",
		"building_code" : "330",
		"address" : "1550 The Collegeway",
		"image" : "http://map.utoronto.ca/_assets/_images/_buildings_pics/WC.jpg",
		"campus" : "utm",
		"city" : "Mississauga",
		"country" : "Canada",
		"postal_code" : " "
	},
	{
		"latlng" : "43.54895, -79.66394",
		"friendly_name" : "UTM Student Centre",
		"building_code" : "328",
		"address" : "1815 Inner Circle",
		"image" : "http://map.utoronto.ca/_assets/_images/_buildings_pics/XR.jpg",
		"campus" : "utm",
		"city" : "Mississauga",
		"country" : "Canada",
		"postal_code" : "L5L 1C6"
	},